calendar_years,acara_sml_id,acara_sml_school_name,suburb,address,post_code,state,school_sector_code_desc,school_type_code_desc,year_range,total_enrollments,fte_total_enrollments,total_female_enrollments,total_male_enrollments,campus_type_code,school_url,latitude,longitude,street_lat,street_lon,geo_formatted_address,geo_suburb,geo_reliability,geo_supplier,atlas_suburb_id
2013,40000,Corpus Christi Catholic School,BELLERIVE,10 ALMA ST,7018,TAS,C,Primary," U, Prep-6",388,388,185,203,G,http://www.corpuschristi.tas.edu.au,-42.871148,147.372475,-42.871627,147.372386,"10 ALMA ST, BELLERIVE, TAS 7018",BELLERIVE,2,Sensis,
2013,40001,Fahan School,SANDY BAY,FISHER AVE,7005,TAS,I,Combined," U, Prep-12",337,337,337,,G,http://www.fahan.tas.edu.au,-42.914444,147.351667,-42.914444,147.351667,"Fahan School, Sandy Bay TAS 7005, Australia",SANDY BAY,3,Google,
2013,40002,Geneva Christian College,LATROBE,197 MORIARTY RD,7307,TAS,I,Combined," U, Prep-12",134,134,52,82,G,http://www.geneva.tas.edu.au,-41.226756,146.438394,-41.227527,146.438484,"197 MORIARTY RD, LATROBE, TAS 7307",LATROBE,2,Sensis,
2013,40003,Holy Rosary Catholic School,CLAREMONT,29 WYNDHAM RD,7011,TAS,C,Primary," U, Prep-6",380,380,172,208,G,http://www.holyrosary.tas.edu.au,-42.789485,147.248422,-42.790255,147.247299,"29 WYNDHAM RD, CLAREMONT, TAS 7011",CLAREMONT,2,Sensis,
2013,40004,Immaculate Heart of Mary Catholic School,LENAH VALLEY,10 MCCANN CRES,7008,TAS,C,Primary," U, Prep-6",175,175,76,99,G,http://www.ihms.tas.edu.au,-42.865304,147.290064,-42.86549,147.289775,"6-10 MCCANN CR, LENAH VALLEY, TAS 7008",LENAH VALLEY,2,Sensis,
2013,40005,John Calvin School,LAUNCESTON,53 HOWICK ST,7250,TAS,I,Combined," U, Prep-10",73,73,36,37,G,http://www.jcs.tas.edu.au,-41.448143,147.144615,-41.447498,147.144339,"53 HOWICK ST, SOUTH LAUNCESTON, TAS 7249",SOUTH LAUNCESTON,2,Sensis,
2013,40006,Larmenier Catholic School,ST LEONARDS,38 STATION RD,7250,TAS,C,Primary," U, Prep-6",178,178,96,82,G,http://www.larmenier.com,-41.460469,147.195194,-41.461683,147.195367,"38 STATION RD, ST LEONARDS, TAS 7250",ST LEONARDS,2,Sensis,
2013,40007,Launceston Church Grammar School,MOWBRAY,BUTTON STREET,7248,TAS,I,Combined," U, Prep-12",706,706,363,343,H,http://www.lcgs.tas.edu.au,-41.408767,147.1278048,-41.408767,147.1278048,"Launceston Church Grammar School, Mowbray TAS 7248, Australia",MOWBRAY,3,Google,
2013,40008,St James' Catholic College,CYGNET,MARY ST,7112,TAS,C,Combined," U, Prep-10",271,271,117,154,G,http://www.sjcc.tas.edu.au,-43.1624054,147.0756298,-43.1624054,147.0756298,"St James Catholic College, Cygnet TAS 7112, Australia",CYGNET,3,Google,
2013,40009,Our Lady of Lourdes Catholic School,DEVONPORT,STEWART ST,7310,TAS,C,Primary," U, Prep-6",383,383,192,191,G,http://www.ololtas.com.au,-41.1799006,146.3560345,-41.1799006,146.3560345,"Our Lady of Lourdes Catholic Primary School, 59-61 Stewart Street, Devonport TAS 7310, Australia",DEVONPORT,3,Google,
2013,40010,Our Lady of Mercy Catholic School,DELORAINE,22 WEST GODERICH ST,7304,TAS,C,Primary," U, Prep-6",116,116,59,57,G,http://www.olom.tas.edu.au,-41.525114,146.649294,-41.52452,146.64995,"22 WEST GODERICH ST, DELORAINE, TAS 7304",DELORAINE,2,Sensis,
2013,40011,Sacred Heart Catholic School,ULVERSTONE,BUTTONS AVE,7315,TAS,C,Primary," U, Prep-6",273,273,142,131,G,http://www.shu.tas.edu.au,-41.1556797,146.1878243,-41.1556797,146.1878243,"Sacred Heart Catholic Primary School, Buttons Avenue, Ulverstone TAS 7375, Australia",ULVERSTONE,3,Google,
2013,40012,Sacred Heart Catholic School,GEEVESTON,4690 HUON HIGHWAY,7116,TAS,C,Primary," U, Prep-6",159,159,77,82,G,http://www.shg.tas.edu.au,-43.164796,146.943058,-43.165811,146.943312,"4690 HUON HWY, GEEVESTON, TAS 7116",GEEVESTON,2,Sensis,
2013,40014,St Anthony's Catholic School,RIVERSIDE,382A WEST TAMAR RD,7250,TAS,C,Primary," U, Prep-6",179,179,85,94,G,http://www.stanthonys.tas.edu.au,-41.406972,147.096137,-41.408268,147.095194,"382A WEST TAMAR RD, RIVERSIDE, TAS 7250",RIVERSIDE,2,Sensis,
2013,40015,St Peter Chanel Catholic School,SMITHTON,SAMPSON AVE,7330,TAS,C,Primary," U, Prep-6",159,159,85,74,G,http://www.stpeterchanelsmithton.com,-40.845462,145.132397,-40.845462,145.132397,"ST Peter Chanel Primary School, 1 Sampson Avenue, Smithton TAS 7330, Australia",SMITHTON,3,Google,
2013,40016,St Brigid's Catholic School,NEW NORFOLK,89 MONTAGU ST,7140,TAS,C,Primary," U, Prep-6",187,187,92,95,G,http://www.stbrigidsnn.tas.edu.au,-42.780377,147.05587,-42.780859,147.056048,"89 MONTAGU ST, NEW NORFOLK, TAS 7140",NEW NORFOLK,2,Sensis,
2013,40017,St Brigid's Catholic School,WYNYARD,40-44 JACKSON ST,7325,TAS,C,Primary," U, Prep-6",156,156,81,75,G,http://www.sbw.tas.edu.au,-40.988203,145.727127,-40.988007,145.7275,"44 JACKSON ST, WYNYARD, TAS 7325",WYNYARD,2,Sensis,
2013,40018,St Cuthbert's Catholic School,LINDISFARNE,26 CORINNA RD,7015,TAS,C,Primary," U, Prep-6",210,210,101,109,G,http://www.stcuthberts.tas.edu.au,-42.843253,147.355452,-42.842944,147.355663,"26 CORINNA RD, LINDISFARNE, TAS 7015",LINDISFARNE,2,Sensis,
2013,40019,St John's Catholic School,RICHMOND,29 ST JOHNS CIRCLE,7025,TAS,C,Primary," U, Prep-6",294,294,152,142,G,http://www.stjohns.tas.edu.au,-42.7328271,147.4425367,-42.7328271,147.4425367,"St John's Catholic School, Saint Johns Circle, Richmond TAS 7025, Australia",RICHMOND,3,Google,
2013,40020,St Joseph's Catholic School,ROSEBERY,9 PROPSTING ST,7470,TAS,C,Primary," U, Prep-6",71,71,36,35,G,http://www.stjosephsr.tas.edu.au,-41.780016,145.543411,-41.780178,145.543255,"9 PROPSTING ST, ROSEBERY, TAS 7470",ROSEBERY,2,Sensis,
2013,40021,St Joseph's Catholic School,QUEENSTOWN,1 PONTIFEX STREET,7467,TAS,C,Primary," U, Prep-6",106,106,43,63,G,http://www.stjosephsq.tas.edu.au,-42.081106,145.559482,-42.081364,145.55979,"1 PONTIFEX ST, QUEENSTOWN, TAS 7467",QUEENSTOWN,2,Sensis,
2013,40022,St Mary's College,HOBART,164 HARRINGTON ST,7000,TAS,C,Combined," U, Prep-12",839,839,774,65,G,http://www.smc.tas.edu.au,-42.882682,147.318541,-42.880892,147.319769,"164 HARRINGTON ST, HOBART, TAS 7000",HOBART,2,Sensis,
2013,40023,St Patrick's Catholic School,LATROBE,BRADSHAW ST,7307,TAS,C,Primary," U, Prep-6",129,129,64,65,G,http://www.stpatslatrobe.tas.edu.au,-41.2356485,146.4177691,-41.2356485,146.4177691,"St Patrick's Catholic School, Latrobe, 55 Bradshaw Street, Latrobe TAS 7307, Australia",LATROBE,3,Google,
2013,40024,St Therese's Catholic School,MOONAH,24 HOPKINS ST,7009,TAS,C,Primary," U, Prep-6",196,196,95,101,G,http://www.sttherese.tas.edu.au,-42.846705,147.290694,-42.847578,147.290974,"24-30 HOPKINS ST, MOONAH, TAS 7009",MOONAH,2,Sensis,
2013,40025,Hilliard Christian School,WEST MOONAH,CHEVIOT RD,7009,TAS,I,Combined," U, Prep-10",90,90,40,50,G,http://hilliard.adventist.edu.au/,-42.854002,147.286921,-42.854002,147.286921,"Hilliard Christian School, West Moonah TAS 7009, Australia",WEST MOONAH,3,Google,
2013,40026,Star of the Sea Catholic College,GEORGE TOWN,CNR FRIEND AND WILLIAM STREETS,7253,TAS,C,Combined," U, Prep-10",160,160,94,66,G,http://www.starofthesea.cc,-41.107716,146.828928,-41.107716,146.828928,"Star of the Sea Catholic College, 2-6 William Street, George Town TAS 7253, Australia",GEORGE TOWN,3,Google,
2013,40027,Stella Maris Catholic School,BURNIE,24-26 FUTUNA AVE,7320,TAS,C,Primary," U, Prep-6",383,383,190,193,G,http://stellamaris.tas.edu.au,-41.051316,145.88754,-41.051526,145.887456,"26 FUTUNA AV, PARK GROVE, TAS 7320",PARK GROVE,2,Sensis,
2013,50113,Papunya School,PAPUNYA,N/A,0872,NT,G,Combined," U, P-11",86,86,44,42,G,,-23.203145,131.910344,-23.203145,131.910344,"PAPUNYA, NT, 0872",PAPUNYA,7,Manual,
2013,40028,The Friends School,NORTH HOBART,23 COMMERCIAL RD,7000,TAS,I,Combined," U, Prep-12",1265,1265,616,649,G,http://www.friends.tas.edu.au,-42.869307,147.313289,-42.869667,147.312765,"23 COMMERCIAL RD, NORTH HOBART, TAS 7000",NORTH HOBART,2,Sensis,
2013,40029,The Hutchins School,SANDY BAY,71 NELSON RD,7005,TAS,I,Combined," U, Prep-12",954,954,,954,G,http://www.hutchins.tas.edu.au,-42.905804,147.330272,-42.905356,147.329843,"71 NELSON RD, SANDY BAY, TAS 7005",SANDY BAY,2,Sensis,
2013,40030,The Cottage School,BELLERIVE,4-10 QUEEN ST,7018,TAS,I,Primary," U, Prep-6",68,68,32,36,G,http://www.cottageschool.tas.edu.au,-42.87562,147.367716,-42.875803,147.367578,"10 QUEEN ST, BELLERIVE, TAS 7018",BELLERIVE,2,Sensis,
2013,40031,Launceston Christian School,LAUNCESTON,452A WEST TAMAR RD,7250,TAS,I,Combined," U, Prep-12",571,570.4,282,289,G,http://www.lcs.tas.edu.au,-41.4019257,147.0895855,-41.4019257,147.0895855,"Launceston Christian School, Riverside TAS 7250, Australia",RIVERSIDE,3,Google,
2013,40032,Leighland Christian School,ULVERSTONE,LEIGHLANDS AVE,7315,TAS,I,Combined," U, Prep-12",586,584.7,272,314,H,http://www.leighland.tas.edu.au,-41.153357,146.194932,-41.153357,146.194932,"Leighland Christian School, 45A Leighlands Avenue, Ulverstone TAS 7315, Australia",ULVERSTONE,3,Google,
2013,40033,North West Christian School,PENGUIN,OFF LING ST,7316,TAS,I,Combined," U, Prep-10",66,65.2,36,30,G,http://northwest.adventist.edu.au,-41.1229391,146.0798863,-41.1229391,146.0798863,"North West Christian School, Penguin TAS 7316, Australia",PENGUIN,3,Google,
2013,40035,St Michael's Collegiate School,HOBART,218 MACQUARIE ST,7000,TAS,I,Combined," U, Prep-12",726,726,726,,G,http://www.collegiate.tas.edu.au,-42.888401,147.323769,-42.887973,147.323423,"212-218 MACQUARIE ST, HOBART, TAS 7000",HOBART,2,Sensis,
2013,40036,Scotch Oakburn College,NEWSTEAD,85 PENQUITE RD,7250,TAS,I,Combined," U, Prep-12",1014,1014,503,511,H,http://www.soc.tas.edu.au,-41.448544,147.169051,-41.449335,147.168348,"85-107 PENQUITE RD, NEWSTEAD, TAS 7250",NEWSTEAD,2,Sensis,
2013,40037,John Paul II Catholic School,CLARENDON VALE,161 MOCKRIDGE RD,7019,TAS,C,Primary," U, Prep-6",139,138,66,73,G,http://www.johnpaul.tas.edu.au,-42.894514,147.446718,-42.89539,147.446015,"161 MOCKRIDGE RD, ROKEBY, TAS 7019",ROKEBY,2,Sensis,
2013,40038,The Launceston Preparatory School,LAUNCESTON,117-119 ELPHIN RD,7250,TAS,I,Primary," U, Prep-6",103,103,49,54,G,http://www.lps.tas.edu.au,-41.437464,147.158303,-41.437698,147.158008,"119 ELPHIN RD, NEWSTEAD, TAS 7250",NEWSTEAD,2,Sensis,
2013,40039,Eastside Lutheran College,WARRANE,FLAGSTAFF GULLY ROAD,7018,TAS,I,Combined," U, Prep-10",91,91,34,57,G,http://www.elc.tas.edu.au,-42.852496,147.383032,-42.852496,147.383032,"Eastside Lutheran College, 4D Bounty Street, Warrane TAS 7018, Australia",WARRANE,3,Google,
2013,40041,St Thomas More's Catholic School,NEWSTEAD,125 ABBOTT ST,7250,TAS,C,Primary," U, Prep-6",264,263.2,136,128,G,http://www.stm.tas.edu.au,-41.444951,147.156848,-41.445511,147.156119,"125 ABBOTT ST, NEWSTEAD, TAS 7250",NEWSTEAD,2,Sensis,
2013,40042,St Paul's Catholic School,BRIDGEWATER,PAICE ST,7030,TAS,C,Primary," U, Prep-6",182,182,81,101,G,http://www.stpauls.tas.edu.au,-42.7380308,147.2481051,-42.7380308,147.2481051,"St Paul's School, Bridgewater TAS 7030, Australia",BRIDGEWATER,3,Google,
2013,40043,Circular Head Christian School,SMITHTON,48 NELSON STREET,7330,TAS,I,Combined," U, Prep-12",345,344.5,168,177,G,http://www.chcs.tas.edu.au,-40.849676,145.118344,-40.850271,145.120004,"48 NELSON ST, SMITHTON, TAS 7330",SMITHTON,2,Sensis,
2013,40044,Southern Christian College,KINGSTON,150 REDWOOD RD,7050,TAS,I,Combined," U, Prep-10",178,177.4,84,94,G,http://www.scc.tas.edu.au,-42.98976,147.309039,-42.99086,147.307679,"150 REDWOOD RD, KINGSTON, TAS 7050",KINGSTON,2,Sensis,
2013,40045,Brooks High School,ROCHERLEA,215 GEORGE TOWN RD,7248,TAS,G,Secondary, 7-12,532,532,269,263,G,,-41.377753,147.122126,-41.375937,147.122901,"215 GEORGE TOWN RD, ROCHERLEA, TAS 7248",ROCHERLEA,2,Sensis,
2013,40046,Flinders Island District High School,WHITEMARK,121 THULE ROAD WHITEMARK,7255,TAS,G,Combined, K-12,71,68.8,27,44,G,https://education.tas.edu.au/flindersislanddistricthigh/Pages/Home.aspx,-40.1202414,148.0156993,-40.1202414,148.0156993,"Whitemark TAS 7255, Australia",Whitemark,7,Google,
2013,40047,Lilydale District School,LILYDALE,MAIN ROAD,7268,TAS,G,Combined, K-12,427,407.1,193,234,G,https://education.tas.edu.au/lilydale/Pages/default.aspx,-41.2519203,147.2137405,-41.2519203,147.2137405,"Lilydale District School, Lilydale TAS 7268, Australia",LILYDALE,3,Google,
2013,40048,Ravenswood Heights Primary School,RAVENSWOOD,PROSSERS FOREST ROAD,7250,TAS,G,Primary, K-6,286,267.2,135,151,G,http://education.tas.edu.au/ravenswoodheightsprimary/,-41.413903936,147.184775391,-41.413903936,147.184775391,"PROSSERS FOREST RD, RAVENSWOOD, TAS 7250",RAVENSWOOD,4,Sensis,
2013,40049,Scottsdale High School,SCOTTSDALE,20 COPLESTONE STREET,7260,TAS,G,Secondary, 7-12,339,328.8,150,189,G,http://www.scottsdalehigh.tas.edu.au/,-41.154579,147.509643,-41.155401,147.510542,"20 COPLESTONE ST, SCOTTSDALE, TAS 7260",SCOTTSDALE,2,Sensis,
2013,40050,Parklands High School,BURNIE,ATKINS DRIVE,7320,TAS,G,Secondary, 7-10,460,459.5,228,232,G,http://education.tas.edu.au/parklandshigh/default.aspx,-41.0811023,145.8999468,-41.0811023,145.8999468,"Parklands High School (Inside Grounds), Romaine TAS 7320, Australia",ROMAINE,3,Google,
2013,40051,Reece High School,DEVONPORT,MIDDLE ROAD,7310,TAS,G,Secondary, 7-10,551,551,279,272,G,http://www.reece.tased.edu.au/,-41.189171,146.34929,-41.189171,146.34929,"41-43 Middle Road, (Reece High School-RHS), Devonport TAS 7310, Australia",DEVONPORT,3,Google,
2013,40052,Ulverstone High School,ULVERSTONE,LEVEN STREET,7315,TAS,G,Secondary, 7-10,494,494,242,252,G,http://www.ulverstonehigh.tas.edu.au/,-41.1614414,146.1725621,-41.1614414,146.1725621,"Ulverstone High School, Leven Street, Ulverstone TAS 7315, Australia",ULVERSTONE,3,Google,
2013,40053,Wynyard High School,WYNYARD,JENNER STREET,7325,TAS,G,Secondary, 7-10,318,318,159,159,G,http://education.tas.edu.au/wynyardhigh/SitePages/Home.aspx,-40.986912,145.716766,-40.986912,145.716766,"Wynyard High School, 30 Church Street, Wynyard TAS 7325, Australia",WYNYARD,3,Google,
2013,40054,Cosgrove High School,GLENORCHY,286 - 294 MAIN ROAD,7010,TAS,G,Secondary, 7-10,239,238.9,123,116,G,https://education.tas.edu.au/cosgrovehigh/Pages/Home.aspx,-42.836531,147.283167,-42.834745,147.284013,"286-294 MAIN RD, GLENORCHY, TAS 7010",GLENORCHY,2,Sensis,
2013,40056,Dover District High School,DOVER,6940 HUON HIGHWAY,7117,TAS,G,Combined, K-12,111,99.3,55,56,G,https://education.tas.edu.au/doverdistricthigh/Pages/Home.aspx,-43.311097,147.012422,-43.310192,147.013496,"6940 HUON HWY, DOVER, TAS 7117",DOVER,2,Sensis,
2013,40057,Geeveston Primary School,GEEVESTON,ARVE ROAD,7116,TAS,G,Primary, K-6,68,64,28,40,G,http://www.education.tas.gov.au/dept/contact/schoolsatoz/geeveston,-43.1627398,146.9216654,-43.1627398,146.9216654,"Geeveston Primary School, School Road, Geeveston TAS 7116, Australia",GEEVESTON,3,Google,
2013,40058,Huonville High School,HUONVILLE,82 WILMOT ROAD,7109,TAS,G,Secondary, 7-12,449,448.4,209,240,G,http://www.schools.education.tas.gov.au/huonvillehigh,-43.023695,147.046792,-43.024608,147.044949,"74-82 WILMOT RD, HUONVILLE, TAS 7109",HUONVILLE,2,Sensis,
2013,40059,Rokeby High School,ROKEBY,170 MOCKRIDGE ROAD,7019,TAS,G,Secondary, 7-10,186,185.3,88,98,G,http://education.tas.edu.au/rokebyhigh,-42.896869,147.445349,-42.895998,147.446556,"170 MOCKRIDGE RD, ROKEBY, TAS 7019",ROKEBY,2,Sensis,
2013,40060,Bothwell District High School,BOTHWELL,PATRICK STREET,7030,TAS,G,Combined, K-10,78,74.8,34,44,G,http://education.tas.edu.au/bothwelldistricthigh/,-41.9256748,147.4910827,-41.9256748,147.4910827,"Campbell Town District High School, Campbell Town TAS 7210, Australia",CAMPBELL TOWN,3,Google,
2013,40061,Deloraine High School,DELORAINE,LANSDOWNE PLACE,7304,TAS,G,Secondary, 7-12,238,237.3,115,123,G,http://education.tas.edu.au/delorainehigh/SitePages/Home.aspx,-41.5295539602,146.658082509,-41.5295539602,146.658082509,"LANSDOWNE PL, DELORAINE, TAS 7304",DELORAINE,4,Sensis,
2013,40062,Glenora District High School,BUSHY PARK,620 GORDAN RIVER ROAD,7140,TAS,G,Combined, K-12,199,193.8,102,97,G,https://education.tas.edu.au/glenoradistricthigh/Pages/Home.aspx,-42.695462,146.889098,-42.696053,146.88836,"620 GORDON RIVER RD, GLENORA, TAS 7140",GLENORA,2,Sensis,
2013,40063,New Norfolk High School,NEW NORFOLK,101 BLAIR STREET,7140,TAS,G,Secondary, 7-10,314,313.4,144,170,G,http://education.tas.edu.au/newnorfolkhigh/Pages/Home.aspx,-42.788541,147.06123,-42.787814,147.062345,"101 BLAIR ST, NEW NORFOLK, TAS 7140",NEW NORFOLK,2,Sensis,
2013,40064,Oatlands District High School,OATLANDS,CHURCH STREET,7120,TAS,G,Combined, K-10,316,303.6,147,169,G,http://education.tas.edu.au/oatlandsdistricthigh/Pages/Home.aspx,-42.2977655,147.368828,-42.2977655,147.368828,"CHURCH ST, OATLANDS, TAS 7120",OATLANDS,4,Sensis,
2013,40065,Ouse District School,OUSE,LYELL HIGHWAY,7140,TAS,G,Primary, K-6,32,30.4,21,11,G,http://education.tas.edu.au/ousedistrict/SitePages/Home.aspx,-42.482174,146.70755,-42.482174,146.70755,"Ouse District School, 6993 Lyell Highway, Ouse TAS 7140, Australia",OUSE,3,Google,
2013,40066,Rosebery District High School,ROSEBERY,MORRISBY STREET,7470,TAS,G,Combined, K-12,109,107,51,58,G,http://www.rosebery.tased.edu.au/,-41.7789887,145.5420098,-41.7789887,145.5420098,"MORRISBY ST, ROSEBERY, TAS 7470",ROSEBERY,4,Sensis,
2013,40067,St Helens District High School,ST HELENS,9 CIRCASSIAN STREET,7216,TAS,G,Combined, K-12,538,515.8,255,283,G,https://education.tas.edu.au/sthelensdistricthigh/Pages/default.aspx,-41.324545,148.246307,-41.323327,148.246473,"9 CIRCASSIAN ST, ST HELENS, TAS 7216",ST HELENS,2,Sensis,
2013,40068,St Marys District School,ST MARYS,13 GRAY ROAD,7215,TAS,G,Combined, K-12,346,335.7,159,187,H,https://education.tas.edu.au/stmarysdistrict/,-41.584816,148.189393,-41.586066,148.18773,"13 GRAY RD, ST MARYS, TAS 7215",ST MARYS,2,Sensis,
2013,40069,Triabunna District School,TRIABUNNA,15 MELBOURNE STREET,7190,TAS,G,Combined, K-10,164,158.4,70,94,G,http://education.tas.edu.au/triabunna/SitePages/Home.aspx,-42.507212,147.910353,-42.506922,147.911567,"15 MELBOURNE ST, TRIABUNNA, TAS 7190",TRIABUNNA,2,Sensis,
2013,40070,Burnie High School,COOEE,FIDLER STREET,7320,TAS,G,Secondary, 7-10,553,552,254,299,G,http://burniehigh.tas.edu.au,-41.042793,145.8671489,-41.042793,145.8671489,"Burnie High School, Fidler Street, Cooee TAS 7320, Australia",COOEE,3,Google,
2013,40071,Campbell Town District High School,CAMPBELL TOWN,BRIDGE STREET,7210,TAS,G,Combined, K-10,213,205,101,112,G,http://education.tas.edu.au/campbelltowndistricthigh/Pages/default.aspx,-41.9256748,147.4910827,-41.9256748,147.4910827,"Campbell Town District High School, Campbell Town TAS 7210, Australia",CAMPBELL TOWN,3,Google,
2013,40072,Cressy District High School,CRESSY,MAIN STREET,7302,TAS,G,Combined, K-10,339,326.8,150,189,G,http://www.cressy.tased.edu.au/,-41.6872320747,147.080032698,-41.6872320747,147.080032698,"MAIN ST, CRESSY, TAS 7302",CRESSY,4,Sensis,
2013,40073,Dunalley Primary School,DUNALLEY,20 BAY STREET,7177,TAS,G,Primary, K-6,126,117.2,66,60,G,https://education.tas.edu.au/dunalleyprimary,-42.885792,147.812115,-42.886118,147.811109,"20 BAY ST, DUNALLEY, TAS 7177",DUNALLEY,2,Sensis,
2013,40074,Exeter High School,EXETER,GLEN-ARD-MOHR ROAD,7275,TAS,G,Secondary, 7-10,370,369.9,180,190,G,http://education.tas.edu.au/exeterhigh/default.aspx,-41.2977795,146.95885,-41.2977795,146.95885,"Glen Ard Mohr Road, Exeter TAS 7275, Australia",Exeter,7,Google,
2013,40075,King Island District High School,CURRIE,21 GEORGE STREET,7256,TAS,G,Combined, K-11,182,172.4,94,88,G,http://www.kingisland.tased.edu.au,-39.927369,143.854378,-39.927464,143.854505,"21 GEORGE ST, CURRIE, TAS 7256",CURRIE,2,Sensis,
2013,40076,Kingston High School,KINGSTON,KINGSTON VIEW DRIVE,7050,TAS,G,Secondary, 7-10,662,662,309,353,G,http://www.kingstonhigh.tas.edu.au/,-42.9701017,147.2884872,-42.9701017,147.2884872,"Kingston High School, Kingston View Drive, Kingston TAS 7050, Australia",KINGSTON,3,Google,
2013,40077,Kings Meadows High School,KINGS MEADOWS,GUY STREET,7249,TAS,G,Secondary, 7-12,582,579.9,278,304,H,http://education.tas.edu.au/kingsmeadowshs/,-41.472827,147.159428,-41.472827,147.159428,"Kings Meadows High School, Kings Meadows TAS 7249, Australia",KINGS MEADOWS,3,Google,
2013,40078,Ogilvie High School,NEW TOWN,228 NEW TOWN ROAD,7008,TAS,G,Secondary, 7-10,800,798.6,800,0.0,G,https://education.tas.edu.au/ogilviehigh/default.aspx,-42.855074,147.300019,-42.853779,147.301114,"228 NEW TOWN RD, NEW TOWN, TAS 7008",NEW TOWN,2,Sensis,
2013,40080,Prospect High School,PROSPECT,RALPH STREET,7250,TAS,G,Secondary, 7-10,475,475,226,249,G,http://education.tas.edu.au/prospecthigh/Pages/Home.aspx,-41.4756372,147.1321454,-41.4756372,147.1321454,"Prospect High School, Prospect TAS 7250, Australia",PROSPECT,3,Google,
2013,40081,Riverside High School,RIVERSIDE,354 WEST TAMAR ROAD,7250,TAS,G,Secondary, 7-10,812,812,390,422,G,http://education.tas.edu.au/riversidehigh/,-41.409046,147.099579,-41.410665,147.098073,"354 WEST TAMAR RD, RIVERSIDE, TAS 7250",RIVERSIDE,2,Sensis,
2013,40082,Smithton High School,SMITHTON,MILL ROAD,7330,TAS,G,Secondary, 7-12,286,282.8,127,159,G,https://education.tas.edu.au/SmithtonHigh/,-40.8389318,145.1164117,-40.8389318,145.1164117,"Smithton High School, Smithton TAS 7330, Australia",SMITHTON,3,Google,
2013,40083,Sorell School,SORELL,GORDON STREET,7172,TAS,G,Combined, K-12,766,741.3,348,418,G,http://education.tas.edu.au/sorell,-41.163325,146.548822,-41.163325,146.548822,"Pitcairn Street, (Port Sorell Primary School), Port Sorell TAS 7307, Australia",PORT SORELL,3,Google,
2013,40084,Taroona High School,TAROONA,MEATH AVENUE,7053,TAS,G,Secondary, 7-10,806,805,359,447,G,http://www.taroonahigh.tased.edu.au,-42.9438116,147.3535874,-42.9438116,147.3535874,"Taroona High School, Taroona TAS 7053, Australia",TAROONA,3,Google,
2013,40085,Tasman District School,NUBEENA,RA 4 NUBEENA BACK ROAD,7184,TAS,G,Combined, K-12,241,233.2,119,122,G,http://education.tas.edu.au/tasman,-43.098352,147.74707,-43.095859,147.7481,"4 NUBEENA BACK RD, NUBEENA, TAS 7184",NUBEENA,2,Sensis,
2013,40086,Winnaleah District High School,WINNALEAH,MAIN STREET,7265,TAS,G,Combined, K-12,126,121.8,62,64,G,http://education.tas.edu.au/winnaleahdistricthigh,-41.0979961566,147.82127887,-41.0979961566,147.82127887,"MAIN ST, WINNALEAH, TAS 7265",WINNALEAH,4,Sensis,
2013,40087,Woodbridge School,WOODBRIDGE,3509 CHANNEL HIGHWAY,7162,TAS,G,Combined, K-10,141,139,66,75,G,http://education.tas.edu.au/woodbridge/,-43.164683,147.239668,-43.165182,147.238492,"3509 CHANNEL HWY, WOODBRIDGE, TAS 7162",WOODBRIDGE,2,Sensis,
2013,40088,Yolla District High School,YOLLA,SCHOOL LANE,7325,TAS,G,Combined, K-10,238,232.4,110,128,G,http://www.yolla.tased.edu.au/,-41.1248206206,145.719800048,-41.1248206206,145.719800048,"SCHOOL LA, YOLLA, TAS 7325",YOLLA,4,Sensis,
2013,40092,Invermay Primary School,INVERMAY,35 - 43 MAYNE STREET,7248,TAS,G,Primary, K-6,288,274,133,155,G,http://education.tas.edu.au/invermayprimary/,-41.421676,147.131233,-41.420999,147.131,"35-43 MAYNE ST, INVERMAY, TAS 7248",INVERMAY,2,Sensis,
2013,40093,Mowbray Heights Primary School,MOWBRAY,CADORNA STREET,7248,TAS,G,Primary, K-6,486,455.6,233,253,G,http://education.tas.edu.au/mowbrayheightsprimary/,-41.402863,147.133386,-41.402863,147.133386,"Mowbray Heights Primary School, 20-30 Cadorna Street, Mowbray TAS 7248, Australia",MOWBRAY,3,Google,
2013,40096,Rose Bay High School,LINDISFARNE,KAOOTA ROAD,7015,TAS,G,Secondary, 7-10,673,673,308,365,G,http://www.rosebay.tased.edu.au/,-42.8611191,147.3577737,-42.8611191,147.3577737,"Rose Bay High School, Rose Bay TAS 7015, Australia",ROSE BAY,3,Google,
2013,40097,Queechy High School,NORWOOD,161 PENQUITE ROAD,7250,TAS,G,Secondary, 7-10,669,667.2,313,356,G,http://www.queechy.tased.edu.au,-41.451969,147.176039,-41.45365,147.175387,"161 PENQUITE RD, NORWOOD, TAS 7250",NORWOOD,2,Sensis,
2013,40098,Devonport High School,DEVONPORT,91 BEST STREET,7310,TAS,G,Secondary, 7-10,614,613.1,313,301,G,http://www.devonporthigh.tased.edu.au/Untitled-1.html,-41.177319,146.351172,-41.177115,146.3512,"91 BEST ST, DEVONPORT, TAS 7310",DEVONPORT,2,Sensis,
2013,40099,Sacred Heart Catholic School,LAUNCESTON,227 YORK STREET,7250,TAS,C,Primary," U, Prep-6",394,394,195,199,G,http://www.sacredheartl.tas.edu.au,-41.443156,147.133023,-41.442448,147.132666,"227 YORK ST, LAUNCESTON, TAS 7250",LAUNCESTON,2,Sensis,
2013,40100,Albuera Street Primary School,HOBART,ALBUERA STREET,7000,TAS,G,Primary, K-6,248,232.2,112,136,G,http://www.albuerastreet.tased.edu.au/,-42.891233,147.32586,-42.891233,147.32586,"Albuera Street Primary School, 10A Albuera Street, Battery Point TAS 7004, Australia",BATTERY POINT,3,Google,
2013,40101,Campbell Street Primary School,HOBART,231 CAMPBELL STREET,7000,TAS,G,Primary, K-6,252,236.4,121,131,G,https://education.tas.edu.au/campbellstreetprimary/,-42.872662,147.322586,-42.872976,147.321791,"231 CAMPBELL ST, NORTH HOBART, TAS 7000",NORTH HOBART,2,Sensis,
2013,40102,Goulburn Street Primary School,WEST HOBART,FOREST ROAD,7000,TAS,G,Primary, K-6,205,190.2,99,106,G,http://education.tas.edu.au/goulburnstreetprimary/Pages/Home.aspx,-42.887888,147.3178265,-42.887888,147.3178265,"Goulburn Street Primary School, West Hobart TAS 7000, Australia",WEST HOBART,3,Google,
2013,40103,Lansdowne Crescent Primary School,WEST HOBART,GOURLAY STREET,7000,TAS,G,Primary, K-6,395,376.2,187,208,G,http://education.tas.edu.au/lansdownecrescentprimary/default.aspx,-42.881883,147.309218,-42.881883,147.309218,"Lansdowne Crescent Primary School, Gourlay Street, West Hobart TAS 7000, Australia",WEST HOBART,3,Google,
2013,40104,Mount Stuart Primary School,MOUNT STUART,106 GILLON CRESCENT,7000,TAS,G,Primary, K-6,378,358.8,179,199,G,http://education.tas.edu.au/mountstuartprimary/Pages/default.aspx,-42.875102,147.299078,-42.874403,147.299333,"106 GILLON CR, MT STUART, TAS 7000",MT STUART,2,Sensis,
2013,40105,South Hobart Primary School,SOUTH HOBART,59 ANGLESEA STREET,7004,TAS,G,Primary, K-6,316,291,134,182,G,https://education.tas.edu.au/southhobartprimary/,-42.892559,147.310811,-42.893255,147.310276,"59 ANGLESEA ST, SOUTH HOBART, TAS 7004",SOUTH HOBART,2,Sensis,
2013,40106,Princes Street Primary School,SANDY BAY,RANDALL STREET,7005,TAS,G,Primary, K-6,355,334.6,160,195,G,http://education.tas.edu.au/princesstreetprimary/Pages/Home.aspx,-42.8991833,147.3185465,-42.8991833,147.3185465,"Princes Street Primary School, Princes Street, Sandy Bay TAS 7005, Australia",SANDY BAY,3,Google,
2013,40107,Waimea Heights Primary School,SANDY BAY,12 BALFOUR COURT,7005,TAS,G,Primary, K-6,296,280,125,171,G,http://www.schools.education.tas.gov.au/waimeaheights/default.aspx,-42.909613,147.336272,-42.909063,147.336302,"12 BALFOUR CT, SANDY BAY, TAS 7005",SANDY BAY,2,Sensis,
2013,40108,Taroona Primary School,TAROONA,104 CHANNEL HIGHWAY,7053,TAS,G,Primary, K-6,349,332.4,156,193,G,http://education.tas.edu.au/taroonaprimary,-42.94308,147.354917,-42.942376,147.352492,"104 CHANNEL HWY, TAROONA, TAS 7053",TAROONA,2,Sensis,
2013,40109,Mount Nelson Primary School,MOUNT NELSON,388 NELSON ROAD,7007,TAS,G,Primary, K-6,150,140.9,86,64,G,https://education.tas.edu.au/mountnelsonprimary/Pages/Home.aspx,-42.912893,147.322371,-42.912341,147.323032,"388 NELSON RD, MT NELSON, TAS 7007",MT NELSON,2,Sensis,
2013,40110,Lenah Valley Primary School,LENAH VALLEY,11 CREEK ROAD,7008,TAS,G,Primary, K-6,460,435.6,222,238,G,http://www.schools.education.tas.gov.au/lenahvalley/default.aspx,-42.861272,147.290481,-42.861038,147.289265,"11 CREEK RD, LENAH VALLEY, TAS 7008",LENAH VALLEY,2,Sensis,
2013,40111,New Town High School,NEW TOWN,6 MIDWOOD STREET,7008,TAS,G,Secondary, 7-10,749,747.2,0.0,749,G,http://www.schools.education.tas.gov.au/newtownhigh/default.aspx,-42.850937,147.302636,-42.851826,147.302342,"6 MIDWOOD ST, NEW TOWN, TAS 7008",NEW TOWN,2,Sensis,
2013,40112,New Town Primary School,NEW TOWN,FORSTER STREET,7008,TAS,G,Primary, K-6,330,311.2,152,178,G,http://www.newtownprimary.tased.edu.au,-42.8576041,147.300554,-42.8576041,147.300554,"New Town Primary School, 36 Forster Street, New Town TAS 7008, Australia",NEW TOWN,3,Google,
2013,40113,Bowen Road Primary School,MOONAH,35 BOWEN ROAD,7009,TAS,G,Primary, K-6,263,249.2,135,128,G,http://www.bowen.road.tased.edu.au,-42.847366,147.307633,-42.84724,147.30653,"35 BOWEN RD, MOONAH, TAS 7009",MOONAH,2,Sensis,
2013,40114,Goodwood Primary School,MOONAH,ELMSLEIGH ROAD,7009,TAS,G,Primary, K-6,109,104.2,51,58,G,http://education.tas.edu.au/goodwoodprimary/Pages/Home.aspx,-42.838692,147.296033,-42.838692,147.296033,"Moonah Primary School, Derwent Park TAS 7009, Australia",DERWENT PARK,3,Google,
2013,40115,Moonah Primary School,MOONAH,42 DERWENT PARK ROAD,7009,TAS,G,Primary, K-6,263,249,135,128,G,http://education.tas.edu.au/moonahprimary/default.aspx,-42.838388,147.297759,-42.838657,147.297773,"42 DERWENT PARK RD, DERWENT PARK, TAS 7009",DERWENT PARK,2,Sensis,
2013,40116,Springfield Gardens Primary School,WEST MOONAH,62 ASHBOURNE GROVE,7009,TAS,G,Primary, K-6,299,283,146,153,G,http://education.tas.edu.au/springfieldgardensprimary/Pages/Home.aspx,-42.847703,147.276035,-42.846908,147.276458,"62 ASHBOURNE GR, WEST MOONAH, TAS 7009",WEST MOONAH,2,Sensis,
2013,40119,Rosetta Primary School,ROSETTA,RIVERVIEW PARADE,7010,TAS,G,Primary, K-6,363,345,196,167,G,http://education.tas.edu.au/rosettaprimary,-42.8220222,147.2575798,-42.8220222,147.2575798,"Rosetta Primary School, Marys Hope Road, Rosetta TAS 7010, Australia",ROSETTA,3,Google,
2013,40123,Collinsvale Primary School,COLLINSVALE,508 COLLINSVALE ROAD,7012,TAS,G,Primary, K-6,52,47.6,24,28,G,http://education.tas.edu.au/collinsvaleprimary,-42.836728,147.198383,-42.836869,147.198965,"508 COLLINSVALE RD, COLLINSVALE, TAS 7012",COLLINSVALE,2,Sensis,
2013,40125,Lindisfarne North Primary School,LINDISFARNE,30 RAMINEA ROAD,7015,TAS,G,Primary, K-6,293,277.8,150,143,G,https://education.tas.edu.au/LindisfarneNorthPrimary/,-42.843877,147.354499,-42.84445,147.354891,"30 RAMINEA RD, LINDISFARNE, TAS 7015",LINDISFARNE,2,Sensis,
2013,40126,Lindisfarne Primary School,LINDISFARNE,LOATTA ROAD,7015,TAS,G,Primary, K-6,357,333.1,151,206,G,http://education.tas.edu.au/lindisfarneprimary/Pages/Home.aspx,-42.8513968,147.3611941,-42.8513968,147.3611941,"Lindisfarne Primary School, Lindisfarne TAS 7015, Australia",LINDISFARNE,3,Google,
2013,40127,Risdon Vale Primary School,RISDON VALE,HEATHER ROAD,7016,TAS,G,Primary, K-6,169,159.8,72,97,G,http://education.tas.edu.au/risdonvaleprimary/Pages/Home.aspx,-42.812603,147.353296,-42.812603,147.353296,"Risdon Vale Primary School, 2 Heather Road, Risdon Vale TAS 7016, Australia",RISDON VALE,3,Google,
2013,40128,Bellerive Primary School,BELLERIVE,20 LESLIE STREET,7018,TAS,G,Primary, K-6,373,345.4,179,194,G,http://www.bellerive.tased.edu.au/,-42.873136,147.37331,-42.873304,147.373259,"20 LESLIE ST, BELLERIVE, TAS 7018",BELLERIVE,2,Sensis,
2013,40129,Clarence High School,BELLERIVE,WENTWORTH STREET,7018,TAS,G,Secondary, 7-10,493,493,234,259,G,http://education.tas.edu.au/clarencehigh/,-42.8786768,147.3880015,-42.8786768,147.3880015,"Clarence High School, Bellerive TAS 7018, Australia",BELLERIVE,3,Google,
2013,40130,Howrah Primary School,HOWRAH,HOWRAH ROAD,7018,TAS,G,Primary, K-6,572,536.8,258,314,G,http://www.howrahprimary.org.au/,-42.881974,147.401936,-42.881974,147.401936,"Howrah Primary School, Howrah TAS 7018, Australia",HOWRAH,3,Google,
2013,40131,Montagu Bay Primary School,MONTAGU BAY,10 CONARA ROAD,7018,TAS,G,Primary, K-6,318,301.1,160,158,G,http://www.montagubay.tased.edu.au/,-42.864534,147.352329,-42.863648,147.352744,"10 CONARA RD, MONTAGU BAY, TAS 7018",MONTAGU BAY,2,Sensis,
2013,40132,Warrane Primary School,WARRANE,213 CAMBRIDGE ROAD,7018,TAS,G,Primary, K-6,175,161.8,88,87,G,https://education.tas.edu.au/warraneprimary,-42.861225,147.382621,-42.859956,147.382189,"213 CAMBRIDGE RD, WARRANE, TAS 7018",WARRANE,2,Sensis,
2013,40133,Clarendon Vale Primary School,CLARENDON VALE,MOCKRIDGE ROAD,7019,TAS,G,Primary, K-6,107,98.6,55,52,G,https://education.tas.edu.au/clarendonvaleprimary,-42.886303,147.444731,-42.886303,147.444731,"14 Mockridge Rd, Clarendon Vale TAS 7019, Australia",CLARENDON VALE,3,Google,
2013,40134,Rokeby Primary School,ROKEBY,BURTONIA STREET,7019,TAS,G,Primary, K-6,244,231.6,115,129,G,http://education.tas.edu.au/rokebyprimary,-42.898183,147.433188,-42.898183,147.433188,"Rokeby Primary School, Rokeby TAS 7019, Australia",ROKEBY,3,Google,
2013,40135,Lauderdale Primary School,LAUDERDALE,3 ACTON ROAD,7021,TAS,G,Primary, K-6,561,524,266,295,G,http://www.lauderdale.tased.edu.au/,-42.904644,147.478705,-42.90397,147.477487,"3 ACTON RD, LAUDERDALE, TAS 7021",LAUDERDALE,2,Sensis,
2013,40136,South Arm Primary School,SOUTH ARM,32 HARMONY LANE,7022,TAS,G,Primary, K-6,130,122.8,64,66,G,http://education.tas.edu.au/southarmprimary/Pages/Home.aspx,-43.026126,147.420158,-43.026583,147.420073,"32 HARMONY LA, SOUTH ARM, TAS 7022",SOUTH ARM,2,Sensis,
2013,40137,Richmond Primary School,RICHMOND,COMMERCIAL ROAD,7025,TAS,G,Primary, K-6,216,201.2,115,101,G,http://www.richmond.tased.edu.au/default.htm,-42.7458399571,147.440435693,-42.7458399571,147.440435693,"COMMERCIAL RD, RICHMOND, TAS 7025",RICHMOND,4,Sensis,
2013,40138,Campania District School,CAMPANIA,2 UNION STREET,7026,TAS,G,Combined, K-10,152,146.4,72,80,G,http://education.tas.edu.au/campaniadistricthigh/,-42.665443,147.424368,-42.665073,147.422999,"2-4 UNION ST, CAMPANIA, TAS 7026",CAMPANIA,2,Sensis,
2013,40139,Glen Huon Primary School,GLEN HUON,801 GLEN HUON ROAD,7109,TAS,G,Primary, K-6,130,124.4,55,75,G,http://education.tas.edu.au/glenhuonprimary/,-43.028221,146.961613,-43.027363,146.962256,"801 GLEN HUON RD, GLEN HUON, TAS 7109",GLEN HUON,2,Sensis,
2013,40140,Huonville Primary School,HUONVILLE,74 WILMOT ROAD,7109,TAS,G,Primary, K-6,464,439.2,222,242,G,https://education.tas.edu.au/huonvilleprimary/,-43.023695,147.046792,-43.024608,147.044949,"74-82 WILMOT RD, HUONVILLE, TAS 7109",HUONVILLE,2,Sensis,
2013,40141,Cygnet Primary School,CYGNET,21 LOUISA STREET,7112,TAS,G,Primary, K-6,235,221.8,114,121,G,http://education.tas.edu.au/cygnetprimary/Pages/Home.aspx,-43.158243,147.072145,-43.158614,147.071309,"21 LOUISA ST, CYGNET, TAS 7112",CYGNET,2,Sensis,
2013,40142,Franklin Primary School,FRANKLIN,NEW ROAD,7113,TAS,G,Primary, K-6,113,107.4,57,56,G,http://www.franklin.tased.edu.au/,-43.085532,147.011851,-43.085532,147.011851,"Franklin Primary School, 10 New Road, Franklin TAS 7113, Australia",FRANKLIN,3,Google,
2013,40143,Kingston Primary School,KINGSTON,CHURCH STREET,7050,TAS,G,Primary, K-6,413,389.8,201,212,G,http://www.kingstonprimary.tased.edu.au,-42.9774295,147.311034,-42.9774295,147.311034,"Kingston Primary School, Kingston TAS 7050, Australia",KINGSTON,3,Google,
2013,40144,Blackmans Bay Primary School,BLACKMANS BAY,177 ROSLYN AVENUE,7052,TAS,G,Primary, K-6,338,313,170,168,G,http://www.blackmansbay.tased.edu.au,-42.996356,147.320655,-42.997657,147.322215,"177 ROSLYN AV, BLACKMANS BAY, TAS 7052",BLACKMANS BAY,2,Sensis,
2013,40145,Margate Primary School,MARGATE,7 VAN MOREY ROAD,7054,TAS,G,Primary, K-6,450,430.4,229,221,G,http://www.schools.education.tas.gov.au/margateprimary/default.aspx,-43.028185,147.261331,-43.029164,147.262371,"7 VAN MOREY RD, MARGATE, TAS 7054",MARGATE,2,Sensis,
2013,40146,Snug Primary School,SNUG,CHANNEL HIGHWAY,7054,TAS,G,Primary, K-6,370,354.8,170,200,G,http://www.education.tas.gov.au/dept/contact/schoolsatoz/snug,-43.066326,147.252584,-43.066326,147.252584,"Snug Primary School, 2208 Channel Highway, Snug TAS 7054, Australia",SNUG,3,Google,
2013,40147,Bruny Island District School,BRUNY ISLAND,15 SCHOOL ROAD ALONNAH,7150,TAS,G,Primary, K-6,46,44.8,21,25,G,http://education.tas.edu.au/brunyislanddistrict/,-43.317673,147.247257,-43.317673,147.247232,"15 SCHOOL RD, ALONNAH, TAS 7150",ALONNAH,2,Sensis,
2013,40148,Cambridge Primary School,CAMBRIDGE,976 CAMBRIDGE ROAD,7170,TAS,G,Primary, K-6,329,310.1,149,180,G,http://education.tas.edu.au/cambridgeprimary/default.aspx,-42.83619,147.44178,-42.836715,147.441831,"976 CAMBRIDGE RD, CAMBRIDGE, TAS 7170",CAMBRIDGE,2,Sensis,
2013,40150,Evandale Primary School,EVANDALE,BARCLAY STREET,7212,TAS,G,Primary, K-6,175,169.8,94,81,G,http://education.tas.edu.au/evandaleprimary/Pages/Home.aspx,-41.5666798,147.2464353,-41.5666798,147.2464353,"Evandale Primary School, 5-8 Barclay Street, Evandale TAS 7212, Australia",EVANDALE,3,Google,
2013,40151,Avoca Primary School,AVOCA,30 ST PAUL'S STREET,7213,TAS,G,Primary, K-6,26,24.4,14,12,G,https://education.tas.edu.au/avocaprimary/Pages/Home.aspx,-41.782751,147.726367,-41.782141,147.726064,"26-30 ST PAULS ST, AVOCA, TAS 7213",AVOCA,2,Sensis,
2013,40153,Bicheno Primary School,BICHENO,JAMES STREET,7215,TAS,G,Primary, K-6,99,96.6,51,48,G,https://education.tas.edu.au/bichenoprimary/,-41.872288,148.305613,-41.872288,148.305613,"Bicheno Primary School, Bicheno TAS 7215, Australia",BICHENO,3,Google,
2013,40154,East Launceston Primary School,EAST LAUNCESTON,18 MARY STREET,7250,TAS,G,Primary, K-6,586,552.8,293,293,G,http://www.eastlaunceston.tased.edu.au/,-41.441605,147.152248,-41.442036,147.152645,"18 MARY ST, EAST LAUNCESTON, TAS 7250",EAST LAUNCESTON,2,Sensis,
2013,40155,Glen Dhu Primary School,SOUTH LAUNCESTON,270 WELLINGTON STREET,7249,TAS,G,Primary, K-6,305,287.8,138,167,G,http://education.tas.edu.au/glendhuprimary/Pages/Home.aspx,-41.455942,147.144014,-41.454851,147.145257,"270 WELLINGTON ST, SOUTH LAUNCESTON, TAS 7249",SOUTH LAUNCESTON,2,Sensis,
2013,40156,Norwood Primary School,NORWOOD,NORWOOD AVENUE,7250,TAS,G,Primary, K-6,470,440.8,226,244,G,https://education.tas.edu.au/norwoodprimary/,-41.462083,147.174248,-41.462083,147.174248,"103 NORWOOD AVENUE, NORWOOD, TAS 7250",NORWOOD,7,Manual,
2013,40157,Punchbowl Primary School,LAUNCESTON,146 PUNCHBOWL ROAD,7249,TAS,G,Primary, K-6,302,285,157,145,G,http://education.tas.edu.au/punchbowlprimary/,-41.452511,147.165332,-41.452297,147.164232,"146 PUNCHBOWL RD, NEWSTEAD, TAS 7250",NEWSTEAD,2,Sensis,
2013,40158,Riverside Primary School,RIVERSIDE,CLEGHORN AVENUE,7250,TAS,G,Primary, K-6,680,647.6,332,348,G,http://www.schools.education.tas.gov.au/riversideprimary/default.aspx,-41.4113717,147.1003929,-41.4113717,147.1003929,"Riverside Primary School, 7-11 Cleghorn Avenue, Riverside TAS 7250, Australia",RIVERSIDE,3,Google,
2013,40159,St Leonards Primary School,ST LEONARDS,330 ST LEONARDS ROAD,7250,TAS,G,Primary, K-6,241,225,127,114,G,http://www.education.tas.gov.au/dept/contact/schoolsatoz/stleonards,-41.459724,147.200309,-41.459208,147.201289,"330-342 ST LEONARDS RD, ST LEONARDS, TAS 7250",ST LEONARDS,2,Sensis,
2013,40160,Summerdale Primary School,SUMMERHILL,82 - 84 STANLEY STREET,7250,TAS,G,Primary, K-6,539,517.8,280,259,G,http://education.tas.edu.au/summerdaleprimary/Pages/Home.aspx,-41.468385,147.130224,-41.467887,147.130616,"82-84 STANLEY ST, SUMMERHILL, TAS 7250",SUMMERHILL,2,Sensis,
2013,40161,Trevallyn Primary School,LAUNCESTON,55 GORGE ROAD,7250,TAS,G,Primary, K-6,456,431.9,222,234,G,http://education.tas.edu.au/trevallynprimary,-41.438111,147.114601,-41.437373,147.114329,"55 GORGE RD, TREVALLYN, TAS 7250",TREVALLYN,2,Sensis,
2013,40162,Waverley Primary School,WAVERLEY,NAROO STREET,7250,TAS,G,Primary, K-6,154,142,78,76,G,http://www.waverley.tased.edu.au/,-41.4334619,147.190087,-41.4334619,147.190087,"Waverley Primary School, 6 Naroo Street, Waverley TAS 7250, Australia",WAVERLEY,3,Google,
2013,40163,West Launceston Primary School,WEST LAUNCESTON,24-38 BASIN ROAD,7250,TAS,G,Primary, K-6,340,319.2,151,189,G,https://education.tas.edu.au/westlauncestonprimary/Pages/Home.aspx,-41.449116,147.128661,-41.450153,147.128379,"24-38 BASIN RD, WEST LAUNCESTON, TAS 7250",WEST LAUNCESTON,2,Sensis,
2013,40164,Youngtown Primary School,YOUNGTOWN,VICTORIA STREET,7249,TAS,G,Primary, K-6,338,316.2,164,174,G,http://www.youngtownprimary.tas.edu.au/,-41.4819462,147.1647399,-41.4819462,147.1647399,"Youngtown Primary School, Youngtown TAS 7249, Australia",YOUNGTOWN,3,Google,
2013,40165,Port Dalrymple School,GEORGE TOWN,AGNES STREET,7253,TAS,G,Combined, K-12,499,485,252,247,G,http://education.tas.edu.au/portdalrymple/Pages/Home.aspx,-41.1013484,146.8310065,-41.1013484,146.8310065,"AGNES ST, GEORGE TOWN, TAS 7253",GEORGE TOWN,4,Sensis,
2013,40166,South George Town Primary School,GEORGE TOWN,FRANKLIN STREET,7253,TAS,G,Primary, K-6,266,250.4,129,137,G,http://education.tas.edu.au/southgeorgetownprimary/Pages/Home.aspx,-41.10023,146.830723,-41.10023,146.830723,"School Shop, George Town TAS 7253, Australia",GEORGE TOWN,3,Google,
2013,40167,Bridport Primary School,BRIDPORT,10 SOUTH STREET,7262,TAS,G,Primary, K-6,146,134,67,79,G,http://education.tas.edu.au/bridportprimary/Pages/Home.aspx,-41.001342,147.389269,-41.00157,147.389946,"10 SOUTH ST, BRIDPORT, TAS 7262",BRIDPORT,2,Sensis,
2013,40168,Ringarooma Primary School,RINGAROOMA,1 FRY STREET,7263,TAS,G,Primary, K-6,85,80.2,38,47,G,https://education.tas.edu.au/ringaroomaprimary/default.aspx,-41.242274,147.733369,-41.243036,147.733261,"1 FRY ST, RINGAROOMA, TAS 7263",RINGAROOMA,2,Sensis,
2013,40169,Scottsdale Primary School,SCOTTSDALE,41 MARY STREET,7260,TAS,G,Primary, K-6,356,335.6,175,181,G,https://education.tas.edu.au/scottsdaleprimary,-41.160713,147.507149,-41.161569,147.507174,"41 MARY ST, SCOTTSDALE, TAS 7260",SCOTTSDALE,2,Sensis,
2013,40170,Hagley Farm Primary School,HAGLEY,MEANDER VALLEY ROAD,7292,TAS,G,Primary, K-6,426,400,210,216,G,http://education.tas.edu.au/hagleyfarmprimary/Pages/Home.aspx,-41.5261402621,146.892208466,-41.5261402621,146.892208466,"MEANDER VALLEY RD, HAGLEY, TAS 7292",HAGLEY,4,Sensis,
2013,40171,Orford Primary School,ORFORD,35 CHARLES STREET,7190,TAS,G,Primary, K-6,86,80.8,38,48,G,http://www.orford.tased.edu.au,-42.563502,147.87386,-42.563732,147.87302,"35 CHARLES ST, ORFORD, TAS 7190",ORFORD,2,Sensis,
2013,40172,Swansea Primary School,SWANSEA,25 FRANKLIN STREET,7190,TAS,G,Primary, K-6,66,63.6,38,28,G,http://education.tas.edu.au/swanseaprimary/,-42.122369,148.073195,-42.122552,148.073084,"25 FRANKLIN ST, SWANSEA, TAS 7190",SWANSEA,2,Sensis,
2013,40173,Bracknell Primary School,BRACKNELL,53 JANE STREET,7302,TAS,G,Primary, K-6,74,70.8,37,37,G,http://www.schools.education.tas.gov.au/bracknellprimary/default.aspx,-41.652434,146.933626,-41.651412,146.933793,"53 JANE ST, BRACKNELL, TAS 7302",BRACKNELL,2,Sensis,
2013,40174,Perth Primary School,PERTH,181 FAIRTLOUGH STREET,7300,TAS,G,Primary, K-6,271,256.2,153,118,G,http://www.perth.tased.edu.au,-41.573246,147.174476,-41.572855,147.172825,"181 FAIRTLOUGH ST, PERTH, TAS 7300",PERTH,2,Sensis,
2013,40175,Longford Primary School,LONGFORD,CNR CATHERINE & WILLIAM STREETS,7301,TAS,G,Primary, K-6,242,229.2,123,119,G,http://education.tas.edu.au/longfordprimary/Pages/Home.aspx,-41.595701,147.118747,-41.595701,147.118747,"Longford Primary School, 17 William Street, Longford TAS 7301, Australia",LONGFORD,3,Google,
2013,40176,Westbury Primary School,WESTBURY,TAYLOR STREET,7303,TAS,G,Primary, K-6,135,128.6,67,68,G,https://education.tas.edu.au/westburyprimary/SitePages/Home.aspx,-41.5317844,146.8380556,-41.5317844,146.8380556,"Westbury Primary School, Taylor Street, Westbury TAS 7303, Australia",WESTBURY,3,Google,
2013,40177,Deloraine Primary School,DELORAINE,EAST BARRACK STREET,7304,TAS,G,Primary, K-6,313,297.4,147,166,G,http://www.deloraineprimary.tased.edu.au,-41.5320973696,146.664330763,-41.5320973696,146.664330763,"EAST BARRACK ST, DELORAINE, TAS 7304",DELORAINE,4,Sensis,
2013,40178,Meander Primary School,MEANDER,137 MAIN ROAD,7304,TAS,G,Primary, K-6,48,45.6,22,26,G,http://www.education.tas.gov.au/dept/contact/schoolsatoz/meander,-41.65314,146.611595,-41.65314,146.611595,"137 MAIN RD, MEANDER, TAS 7304",MEANDER,2,Sensis,
2013,40179,Mole Creek Primary School,MOLE CREEK,CAVESIDE ROAD,7304,TAS,G,Primary, K-6,60,58,25,35,G,http://www.molecreek.tased.edu.au/,-41.5772754,146.4032008,-41.5772754,146.4032008,"CAVESIDE RD, MOLE CREEK, TAS 7304",MOLE CREEK,4,Sensis,
2013,40180,Latrobe Primary School,LATROBE,LEWIS STREET,7307,TAS,G,Primary, K-6,325,307.8,160,165,G,http://education.tas.edu.au/latrobeprimary,-41.239619,146.416014,-41.239619,146.416014,"Latrobe Primary School, Latrobe TAS 7307, Australia",LATROBE,3,Google,
2013,40182,Sheffield School,SHEFFIELD,12 HENRY STREET,7306,TAS,G,Combined, K-12,460,440.2,225,235,G,http://education.tas.edu.au/sheffield/Pages/Home.aspx,-41.382321,146.328556,-41.381945,146.328149,"12 HENRY ST, SHEFFIELD, TAS 7306",SHEFFIELD,2,Sensis,
2013,40183,Latrobe High School,LATROBE,PERCIVAL STREET,7307,TAS,G,Secondary, 7-10,449,448.1,212,237,G,https://education.tas.edu.au/latrobehigh,-41.236606,146.4226699,-41.236606,146.4226699,"Percival Street, (Latrobe High School-LHS), Latrobe TAS 7307, Australia",LATROBE,3,Google,
2013,40185,Sassafras Primary School,SASSAFRAS,50 SCHOOL ROAD,7307,TAS,G,Primary, K-6,58,52.8,32,26,G,https://education.tas.edu.au/sassafrasprimary/Pages/default.aspx,-41.287131,146.503425,-41.287131,146.50345,"50 SCHOOL RD, SASSAFRAS, TAS 7307",SASSAFRAS,2,Sensis,
2013,40187,Devonport Primary School,DEVONPORT,STEWART STREET,7310,TAS,G,Primary, K-6,312,293.2,158,154,G,http://education.tas.edu.au/devonportprimary/Pages/Home.aspx,-41.180258,146.357325,-41.180258,146.357325,"Devonport Primary School, Devonport TAS 7310, Australia",DEVONPORT,3,Google,
2013,40188,East Devonport Primary School,EAST DEVONPORT,19 THOMAS STREET,7310,TAS,G,Primary, K-6,304,285.6,157,147,G,http://education.tas.edu.au/eastdevonportprimary/,-41.177927,146.372114,-41.1787,146.372009,"19-21 THOMAS ST, EAST DEVONPORT, TAS 7310",EAST DEVONPORT,2,Sensis,
2013,40189,Forth Primary School,FORTH,45 WILMOT ROAD,7310,TAS,G,Primary, K-6,166,157.2,88,78,G,http://education.tas.edu.au/forthprimary/,-41.192921,146.248975,-41.192729,146.24832,"45 WILMOT RD, FORTH, TAS 7310",FORTH,2,Sensis,
2013,40190,Hillcrest Primary School,DEVONPORT,5 LAWRENCE DRIVE,7310,TAS,G,Primary, K-6,230,216.8,110,120,G,http://www.hillcrest.tased.edu.au,-41.187074,146.333162,-41.186288,146.333266,"5 LAWRENCE DR, DEVONPORT, TAS 7310",DEVONPORT,2,Sensis,
2013,40191,Miandetta Primary School,DEVONPORT,BERRIGAN ROAD,7310,TAS,G,Primary, K-6,311,292.2,158,153,G,http://education.tas.edu.au/miandettaprimary/,-41.194243,146.350857,-41.194243,146.350857,"Miandetta Primary School, Miandetta TAS 7310, Australia",MIANDETTA,3,Google,
2013,40192,Nixon Street Primary School,DEVONPORT,NIXON STREET,7310,TAS,G,Primary, K-6,532,500.9,261,271,G,http://education.tas.edu.au/nixonstreetprimary/Pages/Home.aspx,-41.1727144,146.336984,-41.1727144,146.336984,"169 Nixon Street, (Nixon Street Primary School-NPS), Devonport TAS 7310, Australia",DEVONPORT,3,Google,
2013,40193,Spreyton Primary School,SPREYTON,1 MERSEY MAIN ROAD,7310,TAS,G,Primary, K-6,439,414.4,195,244,G,https://education.tas.edu.au/spreytonprimary/Pages/Home.aspx,-41.212133,146.345613,-41.212117,146.344009,"1 MERSEY MAIN RD, SPREYTON, TAS 7310",SPREYTON,2,Sensis,
2013,40194,Wilmot Primary School,WILMOT,MAIN ROAD,7310,TAS,G,Primary, K-6,39,37.8,15,24,G,https://education.tas.edu.au/wilmotprimary/Pages/Home.aspx,-41.3860645011,146.173938584,-41.3860645011,146.173938584,"MAIN ST, WILMOT, TAS 7310",WILMOT,4,Sensis,
2013,40195,East Ulverstone Primary School,ULVERSTONE,18 CRAWFORD STREET,7315,TAS,G,Primary, K-6,237,223,98,139,G,http://education.tas.edu.au/eastulverstoneprimary/SitePages/Home.aspx,-41.154515,146.191755,-41.155606,146.190363,"18 CRAWFORD ST, ULVERSTONE, TAS 7315",ULVERSTONE,2,Sensis,
2013,40196,Sprent Primary School,SPRENT,1245 CASTRA ROAD,7315,TAS,G,Primary, K-6,69,64.6,35,34,G,https://education.tas.edu.au/sprentprimary,-41.263481,146.162939,-41.262547,146.159018,"1245 CASTRA RD, SPRENT, TAS 7315",SPRENT,2,Sensis,
2013,40197,Ulverstone Primary School,ULVERSTONE,2 LEVEN STREET,7315,TAS,G,Primary, K-6,393,372.4,189,204,G,http://education.tas.edu.au/ulverstoneprimary,-41.16085,146.164314,-41.160472,146.164364,"2 LEVEN ST, ULVERSTONE, TAS 7315",ULVERSTONE,2,Sensis,
2013,40198,West Ulverstone Primary School,WEST ULVERSTONE,34 MAUD STREET,7315,TAS,G,Primary, K-6,214,201.6,98,116,G,http://www.westulverstone.tased.edu.au/,-41.148162,146.159512,-41.149114,146.159392,"34 MAUD ST, WEST ULVERSTONE, TAS 7315",WEST ULVERSTONE,2,Sensis,
2013,40200,Riana Primary School,RIANA,1225 PINE ROAD,7316,TAS,G,Primary, K-6,106,102.4,59,47,G,https://education.tas.edu.au/rianaprimary,-41.202255,145.999309,-41.202051,145.998584,"1225 PINE RD, RIANA, TAS 7316",RIANA,2,Sensis,
2013,40203,Burnie Primary School,BURNIE,VAN DIEMENS CRESCENT,7320,TAS,G,Primary, K-6,352,333.6,205,147,G,http://education.tas.edu.au/burnieprimary/Pages,-41.058448,145.885315,-41.058448,145.885315,"Burnie Primary School, Park Grove TAS 7320, Australia",PARK GROVE,3,Google,
2013,40204,Cooee Primary School,COOEE,BASS HIGHWAY,7320,TAS,G,Primary, K-6,124,116.4,59,65,G,http://education.tas.edu.au/cooeeprimary/Pages/Home.aspx,-41.040747,145.868096,-41.040747,145.868096,"Cooee Primary School, Bass Highway, Cooee TAS 7320, Australia",COOEE,3,Google,
2013,40205,Montello Primary School,BURNIE,BIRD STREET,7320,TAS,G,Primary, K-6,335,314,165,170,G,http://education.tas.edu.au/montelloprimary/Pages,-41.0596979,145.8984483,-41.0596979,145.8984483,"Montello Primary School, 83 Bird Street, Montello TAS 7320, Australia",MONTELLO,3,Google,
2013,40207,Boat Harbour Primary School,BOAT HARBOUR,17386 BASS HIGHWAY,7321,TAS,G,Primary, K-6,251,236.2,108,143,G,http://education.tas.edu.au/boatharbourprimary,-40.944718,145.63579,-40.945837,145.635737,"17386 BASS HWY, BOAT HARBOUR, TAS 7321",BOAT HARBOUR,2,Sensis,
2013,40208,Havenview Primary School,BURNIE,MARRIOTT STREET,7320,TAS,G,Primary, K-6,134,126.4,60,74,G,http://education.tas.edu.au/havenviewprimary,-41.083448,145.910681,-41.083448,145.910681,"Havenview Primary School, Havenview TAS 7320, Australia",HAVENVIEW,3,Google,
2013,40209,Natone Primary School,NATONE,100 UPPER NATONE ROAD,7321,TAS,G,Primary, K-6,46,45.2,21,25,G,https://education.tas.edu.au/natoneprimary/,-41.169749,145.920436,-41.169749,145.920436,"100 Upper Natone Road, Natone TAS 7321, Australia",Natone,7,Google,
2013,40210,Ridgley Primary School,RIDGLEY,904 RIDGLEY HIGHWAY,7321,TAS,G,Primary, K-6,153,144.6,81,72,G,https://education.tas.edu.au/ridgleyprimary/,-41.138817,145.838201,-41.139827,145.838531,"904 RIDGLEY HWY, RIDGLEY, TAS 7321",RIDGLEY,2,Sensis,
2013,40211,Table Cape Primary School,WYNYARD,GIBBONS STREET,7325,TAS,G,Primary, K-6,320,302,154,166,G,https://education.tas.edu.au/tablecapeprimary/Pages,-40.983186,145.714849,-40.983186,145.714849,"Table Cape Primary School, Wynyard TAS 7325, Australia",WYNYARD,3,Google,
2013,40212,Edith Creek Primary School,EDITH CREEK,RA 1282 TROWUTTA ROAD,7330,TAS,G,Primary, K-6,47,44.6,18,29,G,https://education.tas.edu.au/edithcreekprimary/default.aspx,-40.972235,145.092387,-40.972235,145.092387,"1282 TROWUTTA RD, EDITH CREEK, TAS 7330",EDITH CREEK,2,Sensis,
2013,40213,Forest Primary School,FOREST,RA 422 MENGHA ROAD,7330,TAS,G,Primary, K-6,131,122.2,66,65,G,https://education.tas.edu.au/forestprimary/default.aspx,-40.848281,145.248015,-40.848589,145.249694,"422 MENGHA RD, FOREST, TAS 7330",FOREST,2,Sensis,
2013,40214,Redpa Primary School,REDPA,RA 68 COMEBACK RD,7330,TAS,G,Primary, K-6,28,27.6,15,13,G,https://education.tas.edu.au/redpaprimary/Pages/Home.aspx,-40.932947,144.761854,-40.932674,144.760544,"68 COMEBACK RD, REDPA, TAS 7330",REDPA,2,Sensis,
2013,40215,Smithton Primary School,SMITHTON,27 - 43 GRANT STREET,7330,TAS,G,Primary, K-6,208,198.4,97,111,G,https://education.tas.edu.au/smithtonprimary/,-40.849525,145.116076,-40.848282,145.116069,"27-43 GRANT ST, SMITHTON, TAS 7330",SMITHTON,2,Sensis,
2013,40216,Stanley Primary School,STANLEY,WILSON STREET,7331,TAS,G,Primary, K-6,62,58.4,30,32,G,https://education.tas.edu.au/stanleyprimary/Pages/Home.aspx,-40.7594870967,145.291834398,-40.7594870967,145.291834398,"WILSON ST, STANLEY, TAS 7331",STANLEY,4,Sensis,
2013,40220,Brighton Primary School,BRIGHTON,27 DOWNIE STREET,7030,TAS,G,Primary, K-6,633,604.2,293,340,G,http://education.tas.edu.au/brightonprimary/SitePages/Home.aspx,-42.698271,147.258021,-42.698271,147.258021,"27 DOWNIE ST, BRIGHTON, TAS 7030",BRIGHTON,2,Sensis,
2013,40221,Bagdad Primary School,BAGDAD,SCHOOL ROAD,7030,TAS,G,Primary, K-6,145,136.9,68,77,G,http://www.bagdad.tased.edu.au,-42.624928,147.223053,-42.624928,147.223053,"Bagdad Primary School, Bagdad TAS 7030, Australia",BAGDAD,3,Google,
2013,40222,Kempton Primary School,KEMPTON,OLD HUNTINGROUND ROAD,7030,TAS,G,Primary, K-6,45,44.6,20,25,G,https://education.tas.edu.au/KemptonPrimary/SitePages/Home.aspx,-42.53148,147.20091,-42.53148,147.20091,"Kempton Primary School, Kempton TAS 7030, Australia",KEMPTON,3,Google,
2013,40223,Fairview Primary School,NEW NORFOLK,211 BACK RIVER ROAD,7140,TAS,G,Primary, K-6,300,283.2,137,163,G,https://education.tas.edu.au/fairviewprimary/Pages/Home.aspx,-42.774304,147.050908,-42.775276,147.050695,"211 BACK RIVER RD, NEW NORFOLK, TAS 7140",NEW NORFOLK,2,Sensis,
2013,40224,New Norfolk Primary School,NEW NORFOLK,8 PIONEER AVENUE,7140,TAS,G,Primary, K-6,244,234.4,111,133,G,https://education.tas.edu.au/newnorfolkprimary/Pages/Home.aspx,-42.77912,147.063623,-42.779537,147.063768,"8 PIONEER AV, NEW NORFOLK, TAS 7140",NEW NORFOLK,2,Sensis,
2013,40225,Molesworth Primary School,MOLESWORTH,540 MOLESWORTH ROAD,7140,TAS,G,Primary, K-6,141,134,74,67,G,https://education.tas.edu.au/molesworthprimary/Pages/Home.aspx,-42.804049,147.156464,-42.803565,147.156248,"540 MOLESWORTH RD, MOLESWORTH, TAS 7140",MOLESWORTH,2,Sensis,
2013,40226,Westerway Primary School,WESTERWAY,1619 GORDON RIVER ROAD,7140,TAS,G,Primary, K-6,66,60.4,32,34,G,https://education.tas.edu.au/westerwayprimary/default.aspx,-42.677856,146.78794,-42.67731,146.787233,"1619 GORDON RIVER RD, WESTERWAY, TAS 7140",WESTERWAY,2,Sensis,
2013,40228,Strahan Primary School,STRAHAN,BAY STREET,7468,TAS,G,Primary, K-6,49,45.4,26,23,G,https://education.tas.edu.au/strahanprimary/,-42.153411,145.320362,-42.153411,145.320362,"Strahan Primary School, Strahan TAS 7468, Australia",STRAHAN,3,Google,
2013,40229,Zeehan Primary School,ZEEHAN,BELSTEAD STREET,7469,TAS,G,Primary, K-6,52,48.8,24,28,G,https://education.tas.edu.au/zeehanprimary/Pages/Home.aspx,-41.888026,145.33965,-41.888026,145.33965,"Zeehan Primary School, Zeehan TAS 7469, Australia",ZEEHAN,3,Google,
2013,40230,Tarremah Steiner School,HUNTINGFIELD,NAUTILUS GROVE,7055,TAS,I,Combined," U, Prep-10",227,227,114,113,G,http://www.tarremah.tas.edu.au,-42.9976618,147.2892045,-42.9976618,147.2892045,"Tarremah Steiner School, Huntingfield TAS 7055, Australia",HUNTINGFIELD,3,Google,
2013,40231,Seabrook Christian School,SOMERSET,30 SEABROOK ROAD,7322,TAS,I,Combined," U, Prep-12",169,149.1,88,81,H,http://www.seabrook.tas.edu.au/,-41.043693,145.810325,-41.044563,145.810908,"30 SEABROOK RD, SOMERSET, TAS 7322",SOMERSET,2,Sensis,
2013,40232,MacKillop Catholic College,MORNINGTON,39 CURRAJONG STREET,7018,TAS,C,Secondary," U, 7-10",544,544,238,306,G,http://www.mackillop.tas.edu.au,-42.858147,147.400749,-42.857367,147.401222,"39 CURRAJONG ST, MORNINGTON, TAS 7018",MORNINGTON,2,Sensis,
2013,40233,Devonport Christian School,DON,JILOA WAY,7310,TAS,I,Primary," U, Prep-6",118,118,55,63,G,http://www.dcs.tas.edu.au,-41.1818008,146.3230963,-41.1818008,146.3230963,"Devonport Christian School, 3-11 Jiloa Way, Don TAS 7310, Australia",DON,3,Google,
2013,40234,St Finn Barr's Catholic Primary School,INVERMAY,247A INVERMAY ROAD,7248,TAS,C,Primary," U, Prep-6",274,274,140,134,G,http://www.stfinnbarrs.tas.edu.au,-41.415668,147.132254,-41.415327,147.133687,"247 INVERMAY RD, INVERMAY, TAS 7248",INVERMAY,2,Sensis,
2013,40235,Giant Steps Tasmania,DELORAINE,35 WEST CHURCH ST,7304,TAS,I,Combined, U,39,23.2,4,35,G,http://www.giantsteps.tas.edu.au/,-41.522557,146.652496,-41.522968,146.652016,"35 WEST CHURCH ST, DELORAINE, TAS 7304",DELORAINE,2,Sensis,
2013,40236,Dominic College,GLENORCHY,TOLOSA ST,7010,TAS,C,Combined," U, Prep-10",905,905,465,440,H,http://www.dominic.tas.edu.au,-42.849409,147.257041,-42.849409,147.257041,"Dominic College, 204 Tolosa Street, Glenorchy TAS 7010, Australia",GLENORCHY,3,Google,
2013,40237,Mount Carmel College,SANDY BAY,361 SANDY BAY RD,7005,TAS,C,Combined," U, Prep-10",504,504,491,13,G,http://www.mountcarmel.tas.edu.au,-42.901823,147.3323,-42.90118,147.332741,"361-365 SANDY BAY RD, SANDY BAY, TAS 7005",SANDY BAY,2,Sensis,
2013,40238,Sacred Heart College,NEW TOWN,2 CROSS ST,7008,TAS,C,Combined," U, Prep-10",864,864,446,418,G,http://www.shc.tas.edu.au,-42.861504,147.303432,-42.861057,147.304159,"2 CROSS ST, NEW TOWN, TAS 7008",NEW TOWN,2,Sensis,
2013,40239,Dodges Ferry Primary School,DODGES FERRY,538 OLD FORCETT  ROAD,7173,TAS,G,Primary, K-6,433,400.2,218,215,G,http://education.tas.edu.au/dodgesferryprimary/default.aspx,-42.848686,147.623391,-42.850496,147.623956,"538 OLD FORCETT RD, DODGES FERRY, TAS 7173",DODGES FERRY,2,Sensis,
2013,40240,Exeter Primary School,EXETER,GLEN-ARD-MOHR ROAD,7275,TAS,G,Primary, K-6,446,423,221,225,G,https://education.tas.edu.au/exeterprimary/Pages/default.aspx,-41.2977795,146.95885,-41.2977795,146.95885,"Glen Ard Mohr Road, Exeter TAS 7275, Australia",Exeter,7,Google,
2013,40241,Illawarra Primary School,BLACKMANS BAY,TINDERBOX ROAD,7052,TAS,G,Primary, K-6,401,378.6,169,232,G,https://education.tas.edu.au/illawarraprimaryschool/default.aspx,-43.01687875,147.32156315,-43.01687875,147.32156315,"TINDERBOX RD E, BLACKMANS BAY, TAS 7052",BLACKMANS BAY,4,Sensis,
2013,40242,Oakwood School,CLAREMONT,1 KESTREL STREET,7011,TAS,I,Combined," U, Prep-12",185,183.6,83,102,H,http://www.oakwoodschool.com.au,-42.796994,147.26282,-42.79742,147.261844,"1 KESTREL ST, CLAREMONT, TAS 7011",CLAREMONT,2,Sensis,
2013,40243,Beaconsfield Primary School,BEACONSFIELD,33 GRUBB STREET,7270,TAS,G,Primary, K-6,219,211,98,121,G,http://education.tas.edu.au/beaconsfieldprimary/Pages/Home.aspx,-41.202317,146.821342,-41.200827,146.820694,"33 GRUBB ST, BEACONSFIELD, TAS 7270",BEACONSFIELD,2,Sensis,
2013,40244,Community Christian Academy,NEWSTEAD,31-37 TUDOR AVENUE,7250,TAS,I,Combined," U, Prep-12",85,84.8,50,35,H,http://www.communitychristianacademy.com.au,-41.438007,147.164937,-41.4384,147.16471,"31-37 TUDOR AV, NEWSTEAD, TAS 7250",NEWSTEAD,2,Sensis,
2013,40245,St Virgil's College,AUSTINS FERRY,195 MAIN ROAD,7011,TAS,C,Combined," U, 3-10",734,734,,734,H,http://www.stvirgils.tas.edu.au,-42.774027,147.252863,-42.775002,147.250165,"195-229 MAIN RD, AUSTINS FERRY, TAS 7011",AUSTINS FERRY,2,Sensis,
2013,40247,Peregrine,NICHOLLS RIVULET,1118 NICHOLLS RIVULET ROAD,7112,TAS,I,Primary," U, Prep-8",41,41,17,24,G,http://www.peregrine.tas.edu.au,-43.141895,147.152388,-43.14206,147.153528,"1118 NICHOLLS RIVULET RD, NICHOLLS RIVULET, TAS 7112",NICHOLLS RIVULET,2,Sensis,
2013,40248,Trinity College,POATINA,4031 POATINA ROAD,7302,TAS,I,Combined," U, Prep-12",14,14,9,5,G,http://trinity.fusiontraining.org.au,-41.798624,146.951033,-41.80278,146.951162,"4031 POATINA RD, POATINA, TAS 7302",POATINA,2,Sensis,
2013,40249,Mountain Heights School,QUEENSTOWN,81 CONLAN STREET,7467,TAS,G,Combined, K-12,222,214.4,100,122,G,https://education.tas.edu.au/mountainheights/Pages,-42.093838,145.548919,-42.09333,145.546866,"81 CONLAN ST, QUEENSTOWN, TAS 7467",QUEENSTOWN,2,Sensis,
2013,40250,St Brendan-Shaw College,DEVONPORT,127 JAMES ST,7310,TAS,C,Secondary," U, 7-12",730,730,357,373,G,http://www.sbsc.tas.edu.au,-41.166929,146.343073,-41.166126,146.343173,"127-133 JAMES ST, DEVONPORT, TAS 7310",DEVONPORT,2,Sensis,
2013,40251,St Patrick's College,PROSPECT VALE,282 WESTBURY ROAD,7250,TAS,C,Secondary," U, 7-12",1437,1437,715,722,G,http://www.stpatricks.tas.edu.au,-41.470879,147.126542,-41.473757,147.128117,"282 WESTBURY RD, PROSPECT, TAS 7250",PROSPECT,2,Sensis,
2013,40252,Marist Regional College,BURNIE,PARAKA ST,7320,TAS,C,Secondary," U, Prep-12",818,817.5,436,382,G,http://www.mrc.tas.edu.au,-41.0480455,145.8862925,-41.0480455,145.8862925,"Marist Regional College, Paraka Street, Burnie TAS 7320, Australia",BURNIE,3,Google,
2013,40254,Cape Barren Island School,CAPE BARREN ISLAND,,7257,TAS,G,Combined, K-12,7,7,3,4,G,http://www.education.tas.gov.au/dept/contact/schoolsatoz/capebarren,-40.3982432,148.2014489,-40.3982432,148.2014489,"Cape Barren Island, Tasmania, Australia","",3,Google,
2013,40257,Calvin Christian School,KINGSTON,MARANOA ROAD,7050,TAS,I,Combined," U, Prep-12",488,487,222,266,H,http://www.cst.tas.edu.au,-42.9794966,147.3048709,-42.9794966,147.3048709,"Calvin Christian School, Kingston TAS 7050, Australia",KINGSTON,3,Google,
2013,40258,Herrick Presbyterian Covenant School,HERRICK,NORTH STREET,7264,TAS,I,Combined," U, 1-10",6,6,3,3,G,http://www.herrickschool.com/,-41.100329,147.879215,-41.100329,147.879215,"Herrick Presbyterian Covenant School, 31 Gladstone Road, Herrick TAS 7264, Australia",HERRICK,3,Google,
2013,40259,Sunrise Christian School,FULLARTON,95 WATTLE STREET,5063,SA,I,Combined," U, R-12",1028,1028,528,500,H,http://www.sunrise.sa.edu.au,-34.954497,138.621828,-34.954025,138.621805,"95 WATTLE ST, FULLARTON, SA 5063",FULLARTON,2,Sensis,
2013,40261,The Ngaanyatjarra Lands School,WARAKURNA,,0871,WA,G,Combined, K-12,312,300.3,152,160,H,http://www.det.wa.edu.au/schoolsonline/main_page.do?displayURL=overview.do&schoolID=5899,-23.8958018,126.4879634,-23.8958018,126.4879634,"WARAKURNA, 0871",WARAKURNA,7,Manual,
2013,40270,Emmanuel Christian School,ROKEBY,CHIPMANS ROAD,7019,TAS,I,Combined," U, Prep-10",223,223,114,109,SG,http://www.cst.tas.edu.au,-42.900689,147.437918,-42.900689,147.437918,"Emmanuel Christian School, Rokeby TAS 7019, Australia",ROKEBY,3,Google,
2013,40271,Northern Christian School,BRIDGEWATER,COBBS HILL ROAD,7030,TAS,I,Combined," U, Prep-6",82,82,37,45,SG,http://www.cst.tas.edu.au,-42.7307676,147.2255736,-42.7307676,147.2255736,"Northern Christian School, Bridgewater TAS 7030, Australia",BRIDGEWATER,3,Google,
2013,40272,Channel Christian School,MARGATE,ENDEAVOUR AVENUE,7054,TAS,I,Combined," U, Prep-6",139,139,54,85,SG,http://www.cst.tas.edu.au,-43.0272315,147.272501,-43.0272315,147.272501,"Channel Christian School, Margate TAS 7054, Australia",MARGATE,3,Google,
2013,40275,Saint Mary MacKillop College Albury,JINDERA,LOT 2 URANA ROAD,2642,NSW,I,Combined," U, K-11",81,81,38,43,G,http://www.bmmcalbury.nsw.edu.au/,-35.834512,146.804409,-35.834384,146.804686,"2 URANA RD, BURRUMBUTTOCK, NSW 2642",BURRUMBUTTOCK,2,Sensis,
2013,40276,St Dominic Savio School,ROCKDALE,19 WILLIAM STREET,2216,NSW,I,Primary," U, K-6",29,29,9,20,G,http://www.stdominicsavio.nsw.edu.au/,-33.950973,151.149085,-33.951138,151.149623,"19 WILLIAM ST, ROCKDALE, NSW 2216",ROCKDALE,2,Sensis,
2013,40277,Saint Mary MacKillop College,WAGGA WAGGA,231 GURWOOD STREET,2650,NSW,I,Combined," U, K-12",102,102,50,52,G,http://www.blessedmary.nsw.edu.au/,-35.110405,147.351715,-35.11138,147.352037,"231 GURWOOD ST, WAGGA WAGGA, NSW 2650",WAGGA WAGGA,2,Sensis,
2013,40280,Kurnai College,CHURCHILL,NORTHWAYS ROAD,3842,VIC,G,Secondary, 7-12,1125,1123.8,558,567,H,http://www.kurnaicollege.vic.edu.au,-38.3089291,146.4254479,-38.3089291,146.4254479,"Kurnai College Churchill Campus, Churchill VIC 3842, Australia",CHURCHILL,3,Google,
2013,40281,St Philomena School,PARK RIDGE,61-71 KOPLICK ROAD,4125,QLD,I,Combined," U, Prep-10",142,142,75,67,G,http://www.stphilomena.qld.edu.au,-27.719001,153.084139,-27.720993,153.08416,"61-71 KOPLICK RD, PARK RIDGE, QLD 4125",PARK RIDGE,2,Sensis,
2013,40284,Darkan Primary School,DARKAN,DARKAN SOUTH ROAD,6392,WA,G,Primary, K-7,81,76,39,42,G,http://www.det.wa.edu.au/schoolsonline/main_page.do?displayURL=overview.do&schoolID=4071,-33.4175995,116.7599059,-33.4175995,116.7599059,"DARKAN SOUTH RD, DARKAN, WA 6392",DARKAN,4,Sensis,
2013,40290,Sir David Brand School,COOLBINIA,GLICK ROAD,6050,WA,G,Combined, K-12,55,53.7,15,40,G,http://www.det.wa.edu.au/schoolsonline/main_page.do?displayURL=overview.do&schoolID=6020,-31.912517,115.859593,-31.912517,115.859593,"Sir David Brand School, Glick Road, Coolbinia WA 6050, Australia",COOLBINIA,3,Google,
2013,40294,Divine Mercy College,YANGEBUP,326 YANGEBUP ROAD,6164,WA,I,Combined," U, PP-12",324,324,177,147,G,http://www.ais.wa.edu.au/search-school/?&mode=details&id=158,-32.124677,115.825175,-32.123768,115.825176,"326 YANGEBUP RD, YANGEBUP, WA 6164",YANGEBUP,2,Sensis,
2013,40296,Swan Christian College - Junior School Campus,MIDDLE SWAN,401 GREAT NORTHERN HIGHWAY,6056,WA,I,Primary," U, PP-7",607,607,308,299,SG,http://www.swan.wa.edu.au/,-31.859197,116.014093,-31.859197,116.014093,"401 GREAT NORTHERN HWY, MIDDLE SWAN, WA 6056",MIDDLE SWAN,2,Sensis,
2013,40299,Port Neill Primary School,PORT NEILL,,5604,SA,G,Primary, R-7,14,14,8,6,G,http://www.ptneill.sa.edu.au,-34.1193196,136.3493838,-34.1193196,136.3493838,"Port Neill SA 5604, Australia",PORT NEILL,4,Google,
2013,40309,Thebarton Senior College,TORRENSVILLE,ASHLEY STREET,5031,SA,G,Secondary," U, 8-12",1431,1162.3,608,823,G,http://www.tsc.sa.edu.au,-34.9172843,138.5628157,-34.9172843,138.5628157,"Thebarton Senior College, 40 Ashley Street, Torrensville SA 5045, Australia",TORRENSVILLE,3,Google,
2013,40319,O'Connor Cooperative School,O'CONNOR,MACPHERSON STREET,2602,ACT,G,Primary, K-2,55,55,23,32,G,http://www.coop.act.edu.au/,-35.261945647,149.120715989,-35.261945647,149.120715989,"MACPHERSON ST, OCONNOR, ACT 2602",OCONNOR,4,Sensis,
2013,40320,Erindale College,WANNIASSA,MCBRYDE CRESCENT,2903,ACT,G,Secondary, 10-12,507,507,208,299,G,http://www.erindalec.act.edu.au/,-35.4029995,149.0963066,-35.4029995,149.0963066,"Erindale College, 115 McBryde Crescent, Wanniassa ACT 2903, Australia",WANNIASSA,3,Google,
2013,40321,Hawker College,HAWKER,MURRANJI STREET,2614,ACT,G,Secondary, 11-12,466,464.4,228,238,G,http://www.hawkerc.act.edu.au/,-35.2457099,149.0331773,-35.2457099,149.0331773,"Hawker College, Murranji Street, Hawker ACT 2614, Australia",HAWKER,3,Google,
2013,40322,Narrabundah College,NARRABUNDAH,JERRABOMBERRA AVE,2604,ACT,G,Secondary, 11-12,928,928,522,406,G,http://www.narrabundahc.act.edu.au/,-35.3368719,149.1473463,-35.3368719,149.1473463,"Narrabundah College, Narrabundah ACT 2604, Australia",NARRABUNDAH,3,Google,
2013,40325,Southern Cross Early Childhood School,SCULLIN,WIRRAWAY CRESCENT,2614,ACT,G,Primary, K-2,106,106,44,62,G,http://www.scecs.act.edu.au/,-35.2325407,149.0385318,-35.2325407,149.0385318,"Southern Cross Early Childhood School, Wirraway Crescent, Scullin ACT 2614, Australia",SCULLIN,3,Google,
2013,40326,Lyons Early Childhood School,LYONS,TARRALEAH CRESCENT,2606,ACT,G,Primary, K-2,88,87.4,36,52,G,http://www.lecs.act.edu.au/,-35.3415355,149.0768833,-35.3415355,149.0768833,"Lyons Early Childhood School, 38 Tarraleah Crescent, Lyons ACT 2606, Australia",LYONS,3,Google,
2013,40327,Narrabundah Early Childhood School,NARRABUNDAH,KOOTARA CRESCENT,2604,ACT,G,Primary, K-2,62,62,21,41,G,http://www.necs.act.edu.au/,-35.328737,149.150973,-35.328737,149.150973,"Narrabundah Early Childhood School, 23-27 Kootara Crescent, Narrabundah ACT 2604, Australia",NARRABUNDAH,3,Google,
2013,40328,Caroline Chisholm School,CHISHOLM,HAMBIDGE CRESCENT,2905,ACT,G,Combined, K-10,509,509,257,252,H,http://www.chisholm.act.edu.au/,-35.417834,149.1204812,-35.417834,149.1204812,"Caroline Chisholm School- Senior Campus, 108 Hambidge Crescent, Chisholm ACT 2905, Australia",CHISHOLM,3,Google,
2013,40329,Isabella Plains Early Childhood School,ISABELLA PLAINS,ELLERSTON AVENUE,2905,ACT,G,Primary, K-2,92,92,32,60,G,http://www.ipecs.act.edu.au/,-35.4280404,149.0895983,-35.4280404,149.0895983,"Isabella Plains Early Childhood School, 130-140 Ellerston Avenue, Isabella Plains ACT 2905, Australia",ISABELLA PLAINS,3,Google,
2013,40330,The Canberra College,PHILLIP,LAUNCESTON STREET,2606,ACT,G,Secondary, 11-12,977,977,579,398,H,http://www.canberrac.act.edu.au/,-35.3396473,149.089027,-35.3396473,149.089027,"Canberra College, 2 Launceston Street, Phillip ACT 2606",PHILLIP,3,Google,
2013,40332,Daramalan College,DICKSON,COWPER STREET,2602,ACT,I,Secondary," U, 7-12",1445,1445,644,801,G,http://www.daramalan.act.edu.au/,-35.2530895,149.1377308,-35.2530895,149.1377308,"Daramalan College, 121 Cowper Street, Dickson ACT 2602",DICKSON,3,Google,
2013,40333,Marist College Canberra,PEARCE,MARR STREET,2607,ACT,I,Combined," U, 4-12",1622,1622,,1622,G,http://www.maristc.act.edu.au,-35.359304,149.0897244,-35.359304,149.0897244,"Marist College Canberra, 27 Marr Street, Pearce ACT 2607, Australia",PEARCE,3,Google,
2013,40334,St Edmund's College,GRIFFITH,110 CANBERRA AVENUE,2603,ACT,I,Combined," U, 4-12",1117,1117,,1117,G,http://www.stedmunds.act.edu.au/pages/index.asp,-35.323315,149.144412,-35.321969,149.144733,"110 CANBERRA AV, GRIFFITH, ACT 2603",GRIFFITH,2,Sensis,
2013,40337,Darwin High School,THE GARDENS,10 ATKINS DR,0820,NT,G,Secondary," U, 10-12",1167,1159.8,604,563,G,http://www.darwinhigh.nt.edu.au,-12.439331,130.834305,-12.44057,130.83489,"10 ATKINS DR, THE GARDENS, NT 0820",THE GARDENS,2,Sensis,
2013,40338,Northern Territory Open Education Centre,RAPID CREEK,21 CHRISP ST,0810,NT,G,Secondary, 10-12,145,112.41,87,58,G,http://www.ntoec.nt.edu.au,-12.382457,130.857921,-12.38321,130.858136,"21 CHRISP ST, RAPID CREEK, NT 0810",RAPID CREEK,2,Sensis,
2013,40339,Centralian Senior College,ALICE SPRINGS,10 GREVILLEA DR,0870,NT,G,Secondary, 7-12,462,454.4,213,249,G,http://www.centraliansc.nt.edu.au,-23.698385,133.894872,-23.697402,133.896307,"10 GREVILLEA DR, SADADEEN, NT 0870",SADADEEN,2,Sensis,
2013,40341,Kiana School,KIANA,KIANA,0861,NT,G,Combined," U, T, 2-3, 5-7",7,7,2,5,G,http://www.kianastation.nt.edu.au,-17.2442898,136.1844489,-17.2442898,136.1844489,"KIANA, KIANA, 0861",KIANA,7,Manual,
2013,40342,Woolaning School,LITCHFIELD PARK,LITCHFIELD PARK RD,0822,NT,G,Primary," U, 1-2, 4",6,6,3,3,G,http://www.schools.nt.edu.au/tegs/woolan/wool.htm,-13.1277779,130.803894,-13.1277779,130.803894,"LITCHFIELD PARK RD, LITCHFIELD PARK, NT 0822",LITCHFIELD PARK,4,Sensis,
2013,40343,Araluen Christian College,ALICE SPRINGS,10 BLAIN STREET,0870,NT,I,Combined," U, T-9",230,230,98,132,G,http://www.acc.nt.edu.au/,-23.70776,133.852346,-23.707202,133.851868,"10 BLAIN ST, ARALUEN, NT 0870",ARALUEN,2,Sensis,
2013,40344,Holy Family Catholic Primary School,KARAMA,CALYTRIX ROAD,0812,NT,C,Primary," U, T-6",169,169,95,74,G,http://www.holyfamilynt.catholic.edu.au,-12.393994,130.91212,-12.393994,130.91212,"Holy Family Catholic Primary School, 22 Calytrix Road, Karama NT 0812, Australia",KARAMA,3,Google,
2013,40345,Holy Spirit Catholic Primary School,WANGURI,GSELL STREET,0810,NT,C,Primary," U, T-6",268,268,141,127,G,https://sites.google.com/site/holyspiritprimaryschoolnt/home,-12.3721289,130.8861298,-12.3721289,130.8861298,"Gsell Street, Wanguri NT 0810, Australia",Wanguri,7,Google,
2013,40346,O'Loughlin Catholic College,KARAMA,MUELLER ROAD,0812,NT,C,Secondary," U, 7-12",474,474,251,223,G,http://www.oloughlin.nt.edu.au/,-12.3937584,130.9107042,-12.3937584,130.9107042,"O'Loughlin Catholic College, Mueller Road, Karama NT 0812, Australia",KARAMA,3,Google,
2013,40347,Our Lady of the Sacred Heart Catholic College,ALICE SPRINGS,TRAEGER AVENUE,0870,NT,C,Combined," U, T-12",945,945,447,498,H,http://www.olshalice.catholic.edu.au,-23.707984,133.8762778,-23.707984,133.8762778,"Our Lady Of Sacred Heart Catholic College, Traeger Avenue, The Gap NT 0870, Australia",THE GAP,3,Google,
2013,40348,Sacred Heart Catholic Primary School,WOODROFFE,EMERY AVENUE,0830,NT,C,Primary," U, T-6",272,272,139,133,G,http://www.shpsnt.catholic.edu.au/,-12.4956946,130.9794143,-12.4956946,130.9794143,"Sacred Heart Primary School, 34 Emery Avenue, Woodroffe NT 0830, Australia",WOODROFFE,3,Google,
2013,40349,St Francis of Assisi Catholic Primary School,HUMPTY DOO,CHALLONER CIRCUIT,0836,NT,C,Primary," U, T-6",229,229,113,116,G,http://www.sfasnt.catholic.edu.au,-12.576179,131.103424,-12.578802,131.100945,"56 CHALLONER CCT, HUMPTY DOO, NT 0836 ",HUMPTY DOO,7,Manual,
2013,40350,St John's Catholic College,THE GARDENS,SALONIKA ST,0820,NT,C,Secondary," U, 7-12",402,402,185,217,G,http://www.stjohnsnt.catholic.edu.au,-12.4405908,130.8394412,-12.4405908,130.8394412,"Salonika Street, The Gardens NT 0820, Australia",The Gardens,7,Google,
2013,40351,St Joseph's Catholic College,KATHERINE,CNR MALUKA ROAD & CHAMBERS DRIVE,0850,NT,C,Combined," U, T-11",283,283,138,145,G,http://www.sjcckatherine.nt.edu.au/,-14.4624176,132.2759887,-14.4624176,132.2759887,"St Joseph's Catholic College, Chambers Drive, Katherine East NT 0850, Australia",KATHERINE EAST,3,Google,
2013,40352,St Mary's Catholic Primary School,DARWIN,LINDSAY STREET,0800,NT,C,Primary," U, T-6",194,194,100,94,G,http://www.stmarysnt.catholic.edu.au,-12.460187,130.8390112,-12.460187,130.8390112,"St Mary's Catholic Primary School, 3 Lindsay Street, Darwin NT 0800, Australia",DARWIN,3,Google,
2013,40353,St Paul's Catholic Primary School,NIGHTCLIFF,TROWER RD AND FRANCIS STREET,0810,NT,C,Primary," U, T-6",277,277,129,148,G,http://www.stpaulsnt.catholic.edu.au,-12.387222,130.859413,-12.387222,130.859413,"INTERSECTION OF FRANCIS ST AND TROWER RD, RAPID CREEK, NT 0810",RAPID CREEK,4,Sensis,
2013,40356,Muirden Senior College,ADELAIDE,368 KING WILLIAM STREET,5000,SA,I,Secondary," U, 11-12",82,81,54,28,G,http://www.muirden.sa.edu.au,-34.933171,138.60023,-34.933171,138.60023,"368 KING WILLIAM ST, ADELAIDE, SA 5000",ADELAIDE,2,Sensis,
2013,40357,Sacred Heart College Senior School,SOMERTON PARK,BRIGHTON ROAD,5044,SA,C,Secondary," U, 8-12",1042,1039.6,466,576,G,http://www.shcs.sa.edu.au,-34.9950128,138.517961,-34.9950128,138.517961,"Sacred Heart College Senior School, Somerton Park SA 5044, Australia",SOMERTON PARK,3,Google,
2013,40366,Kinma School,TERREY HILLS,127 COOLOWIE ROAD,2084,NSW,I,Primary," U, K-6",56,56,24,32,G,http://www.kinma.nsw.edu.au,-33.686032,151.215595,-33.686475,151.215503,"127 COOLOWIE RD, TERREY HILLS, NSW 2084",TERREY HILLS,2,Sensis,
2013,40367,Knox Grammar School,WAHROONGA,PACIFIC HIGHWAY,2076,NSW,I,Combined," U, K-12",2304,2304,,2304,H,http://www.knox.nsw.edu.au/,-33.7234606,151.1197007,-33.7234606,151.1197007,"Knox Grammar School, 7 Woodville Avenue, Wahroonga NSW 2076, Australia",WAHROONGA,3,Google,
2013,40368,Masada College,LINDFIELD,15 TREATTS ROAD,2070,NSW,I,Primary," U, K-6",186,186,83,103,G,http://www.masada.nsw.edu.au,-33.771061,151.165292,-33.770777,151.164945,"15 TREATTS RD, LINDFIELD, NSW 2070",LINDFIELD,2,Sensis,
2013,40369,Moriah College,BONDI JUNCTION,QUEENS PARK ROAD,2022,NSW,I,Combined," U, K-12",1483,1483,746,737,G,http://www.moriah.nsw.edu.au/,-33.9002527,151.2445521,-33.9002527,151.2445521,"Moriah College, Queens Park Road, Queens Park NSW 2022, Australia",QUEENS PARK,3,Google,
2013,40372,St Francis Xavier's College,HAMILTON,286 PARKWAY AVENUE,2303,NSW,C,Secondary," U, 11-12",961,960.6,513,448,G,http://hamilton.catholic.edu.au,-32.9263874,151.7544146,-32.9263874,151.7544146,"St Francis Xavier's College, Hamilton NSW 2303, Australia",HAMILTON,3,Google,
2013,40374,Holy Spirit Infants School,ABERMAIN,CHURCH STREET,2326,NSW,C,Primary," U, K-2",85,85,42,43,G,http://www.abermain.catholic.edu.au,-32.8108,151.44325,-32.8108,151.44325,"Holy Spirit Infants School, Church Street, Abermain NSW 2326, Australia",ABERMAIN,3,Google,
2013,40375,St Joseph's Catholic Primary School Como - Oyster Bay,COMO,OYSTER BAY ROAD,2226,NSW,C,Primary," U, K-6",442,442,222,220,G,http://stjcomo.catholic.edu.au,-34.0098393,151.0726185,-34.0098393,151.0726185,"St. Joseph's School, Oyster Bay NSW 2226, Australia",OYSTER BAY,3,Google,
2013,40378,St Therese's Community School,WILCANNIA,BARRIER HWY,2836,NSW,C,Primary," U, K-2",32,32,23,9,G,http://www.wilcannia.catholic.edu.au,-31.5589673,143.3784767,-31.5589673,143.3784767,"St. Thereses Community School, Wilcannia NSW 2836, Australia",WILCANNIA,3,Google,
2013,40381,Highfields Preparatory & Kindergarten School Limited,LINDFIELD,18 HIGHFIELD ROAD,2070,NSW,I,Primary," U, K-2",83,83,40,43,G,http://www.highfields.nsw.edu.au,-33.775372,151.163541,-33.775034,151.163326,"18 HIGHFIELD RD, LINDFIELD, NSW 2070",LINDFIELD,2,Sensis,
2013,40383,Odyssey House,EAGLEVALE,MOONSTONE PLACE,2558,NSW,I,Combined," U, 7-10",77,77,19,58,G,http://www.odysseyhouse.com.au,-999,-999,-999,-999,"","",7,Manual,
2013,40384,Coffs Harbour Christian Community School,BONVILLE,BONVILLE STATION ROAD,2441,NSW,I,Combined," U, K-12",898,898,481,417,H,http://www.coffsccs.nsw.edu.au,-30.3755271193,153.048371369,-30.3755271193,153.048371369,"BONVILLE STATION RD, BONVILLE, NSW 2450",BONVILLE,4,Sensis,
2013,40386,Taylors Senior College,MELBOURNE,399 LONSDALE STREET,3000,VIC,I,Secondary," U, 10-12",169,168.1,70,99,G,http://taylorscollege.edu.au,-37.813037,144.960714,-37.81282,144.960625,"399-413 LONSDALE ST, MELBOURNE, VIC 3000",MELBOURNE,2,Sensis,
2013,40387,Learning Cooperative Ltd,HURSTBRIDGE,10 LACEYS RD,3099,VIC,I,Primary," U, Prep-6",26,26,11,15,G,http://www.hurstbridgelearningcoop.vic.edu.au/,-37.630057,145.213353,-37.628789,145.213334,"10 LACEYS RD, COTTLES BRIDGE, VIC 3099",COTTLES BRIDGE,2,Sensis,
2013,40388,Mt Maria College,MITCHELTON,67-69 OSBORNE ROAD,4053,QLD,C,Secondary," U, 8-12",730,730,331,399,G,http://www.mtmaria.com.au,-27.411472,152.9777,-27.411397,152.977303,"69 OSBORNE RD, MITCHELTON, QLD 4053",MITCHELTON,2,Sensis,
2013,40391,Sylvanvale School,KIRRAWEE,2 MIKARIE PLACE,2232,NSW,I,Combined," U, K-10",20,9.4,8,12,G,http://www.sylvanvalefoundation.com.au,-34.023039,151.083872,-34.022984,151.083582,"2 MIKARIE PL, KIRRAWEE, NSW 2232",KIRRAWEE,2,Sensis,
2013,40392,Andale School,KEW,84 CHARLES STREET,3101,VIC,I,Combined, U,28,28,8,20,G,http://www.andale.vic.edu.au,-37.806565,144.995351,-37.806524,144.9951,"84 CHARLES ST, ABBOTSFORD, VIC 3067",ABBOTSFORD,2,Sensis,
2013,40393,The Currajong School,MALVERN EAST,90 DARLING RD,3145,VIC,I,Combined," U, Prep-12",48,48,5,43,G,http://www.currajong.vic.edu.au,-37.875825,145.060078,-37.875735,145.059588,"90 DARLING RD, MALVERN EAST, VIC 3145",MALVERN EAST,2,Sensis,
2013,40394,Larmenier Special School,HAMPTON,453 BLUFF ROAD,3188,VIC,C,Combined," U, Prep-12",34,19.6,6,28,G,http://www.larmenierhampton.catholic.edu.au,-37.937855,145.02305,-37.937991,145.023751,"451-453 BLUFF RD, HAMPTON, VIC 3188",HAMPTON,2,Sensis,
2013,40395,Mansfield Autistic Centre,MANSFIELD,81 HIGHETT ST,3722,VIC,I,Combined, U,32,23.6,10,22,H,http://www.autismmansfield.org.au,-37.060365,146.084685,-37.06062,146.085927,"81 HIGHETT ST, MANSFIELD, VIC 3722",MANSFIELD,2,Sensis,
2013,40396,Rossbourne School,HAWTHORN,131 POWER ST,3122,VIC,I,Combined," U, 7-11",128,128,35,93,G,http://www.rossbourne.vic.edu.au,-37.823073,145.026526,-37.823001,145.026116,"131 POWER ST, HAWTHORN, VIC 3122",HAWTHORN,2,Sensis,
2013,40400,St Paul's College,KEW,3-13 FERNHURST GROVE,3101,VIC,C,Combined, U,48,39.9,19,29,G,http://www.villamaria.com.au/services/education-services/st-pauls-college.html,-37.806679,145.027191,-37.806752,145.027562,"3 FERNHURST GR, KEW, VIC 3101",KEW,2,Sensis,
2013,40402,Autism Queensland Education and Therapy Centre,SUNNYBANK HILLS,437 HELLAWELL ROAD,4109,QLD,I,Combined," U, 1-12",112,55.8,14,98,H,http://www.autismqld.com.au,-27.59704,153.043199,-27.597692,153.043441,"437 HELLAWELL RD, SUNNYBANK HILLS, QLD 4109",SUNNYBANK HILLS,2,Sensis,
2013,40406,Catholic Regional College Sydenham,SYDENHAM,380 SYDENHAM ROAD,3037,VIC,C,Secondary," U, 11-12",752,751.6,366,386,G,http://www.crcsydenham.net,-37.699854,144.771165,-37.699108,144.772152,"380 SYDENHAM RD, SYDENHAM, VIC 3037",SYDENHAM,2,Sensis,
2013,40408,Tangara School for Girls,CHERRYBROOK,89-97 FRANKLIN ROAD,2126,NSW,I,Combined," U, K-12",616,616,545,71,H,http://www.tangara.nsw.edu.au,-33.736326,151.036183,-33.735897,151.035647,"89-97 FRANKLIN RD, CHERRYBROOK, NSW 2126",CHERRYBROOK,2,Sensis,
2013,40409,Heritage Christian School,PORT MACQUARIE,MUMFORD STREET,2444,NSW,I,Combined," U, K-12",243,243,121,122,G,http://www.heritage.nsw.edu.au,-31.430067,152.88025,-31.430067,152.88025,"Heritage Christian School, 33 Mumford Street, Port Macquarie NSW 2444, Australia",PORT MACQUARIE,3,Google,
2013,40410,St Spyridon College,KINGSFORD,78 GARDENERS ROAD,2032,NSW,I,Combined," U, K-12",655,655,317,338,H,http://www.stspyridon.nsw.edu.au,-33.924974,151.224158,-33.925492,151.224188,"78-80 GARDENERS RD, KINGSFORD, NSW 2032",KINGSFORD,2,Sensis,
2013,40412,Catholic College Bendigo,BENDIGO,BARKLY ST,3550,VIC,C,Secondary," U, 7-12",1904,1901.8,953,951,H,http://www.ccb.vic.edu.au,-36.752966,144.2742124,-36.752966,144.2742124,"Catholic College Bendigo, Bendigo VIC 3550, Australia",BENDIGO,3,Google,
2013,40421,Para West Adult Campus,DAVOREN PARK,CRAFTER STREET,5113,SA,G,Secondary," U, 8-12",640,536,396,244,G,http://www.parawest.sa.edu.au,-34.687265,138.664538,-34.687265,138.664538,"Para West Adult Campus, 23 Crafter Street, Davoren Park SA 5113, Australia",DAVOREN PARK,3,Google,
2013,40422,Marden Senior College,MARDEN,MARDEN ROAD,5070,SA,G,Secondary, 11-12,788,512.6,442,346,G,http://www.mardensc.sa.edu.au,-34.8910397,138.6359743,-34.8910397,138.6359743,"Marden Senior College, Marden Road, Marden SA 5070, Australia",MARDEN,3,Google,
2013,40423,Edward John Eyre High School,WHYALLA NORRIE,GRUNDEL STREET,5608,SA,G,Secondary, 11-12,403,398,199,204,G,http://www.ejehs.sa.edu.au,-33.0262555,137.5410069,-33.0262555,137.5410069,"Edward John Eyre High School, Grundel Street, Whyalla Norrie SA 5608, Australia",WHYALLA NORRIE,3,Google,
2013,40424,Point Pearce Aboriginal School,POINT PEARCE,PARRYS AVENUE,5573,SA,G,Primary, R-2,12,12,9,3,G,http://www.ptpearceab.sa.edu.au,-34.416635,137.5011914,-34.416635,137.5011914,"Point Pearce Aboriginal School, Parrys Terrace, Point Pearce SA 5573, Australia",POINT PEARCE,3,Google,
2013,40427,Williamstown High School,WILLIAMSTOWN,PASCO STREET,3016,VIC,G,Secondary, 7-12,1468,1465.3,798,670,H,http://www.willihigh.vic.edu.au,-37.862917,144.894895,-37.862917,144.894895,"Williamstown High School, 76 Pasco Street, Williamstown VIC 3016, Australia",WILLIAMSTOWN,3,Google,
2013,40429,Wodonga Senior Secondary College,WODONGA,69 WOODLAND STREET,3690,VIC,G,Secondary, 10-12,938,932.4,490,448,G,http://www.wssc.vic.edu.au,-36.126353,146.87879,-36.125275,146.87894,"69-79 WOODLAND ST, WODONGA, VIC 3690",WODONGA,2,Sensis,
2013,40430,Swinburne Senior Secondary College,HAWTHORN,505 BURWOOD ROAD,3122,VIC,G,Secondary, 11-12,428,421.4,261,167,G,http://www.sssc.vic.edu.au/,-37.822647,145.040637,-37.823222,145.040547,"505 BURWOOD RD, HAWTHORN, VIC 3122",HAWTHORN,2,Sensis,
2013,40434,Echuca College,ECHUCA,20 - 50 BUTCHER STREET,3564,VIC,G,Secondary, 7-12,735,735,366,369,H,http://www.echucacollege.vic.edu.au,-36.132439,144.732395,-36.133344,144.732397,"20-50 BUTCHER ST, ECHUCA, VIC 3564",ECHUCA,2,Sensis,
2013,40436,Chifley College Senior Campus,MOUNT DRUITT,NORTH PARADE,2770,NSW,G,Secondary," U, 11-12",561,521.5,293,268,H,http://www.chifcolsnr-h.schools.nsw.edu.au,-33.770309,150.829443,-33.770309,150.829443,"Chifley College Senior Campus, North Parade, Mount Druitt NSW 2770, Australia",MOUNT DRUITT,3,Google,
2013,40437,Moree Secondary College Albert St Campus,MOREE,ALBERT ST,2400,NSW,G,Secondary, 10-12,256,254.6,141,115,H,http://www.mscalberts-h.schools.nsw.edu.au,-29.4654281399,149.841321057,-29.4654281399,149.841321057,"ALBERT ST, MOREE, NSW 2400",MOREE,4,Sensis,
2013,40438,St Marys Senior High School,ST MARYS,KALANG AVE,2760,NSW,G,Secondary, 11-12,898,891.7,593,305,G,http://www.stmaryssen-h.schools.nsw.edu.au,-33.7632023,150.770101,-33.7632023,150.770101,"St Marys Senior High School, St Marys Senior High School, Saint Marys NSW 2760, Australia",SAINT MARYS,3,Google,
2013,40440,Brisbane Water Secondary College Woy Woy Campus,WOY WOY,EDWARD ST,2256,NSW,G,Secondary," U, 10-12",716,709.8,355,361,H,http://www.woywoy-h.schools.nsw.edu.au,-33.4928627,151.324637,-33.4928627,151.324637,"Brisbane Water Secondary College Woy Woy Campus, Edward Street, Woy Woy NSW 2256, Australia",WOY WOY,3,Google,
2013,40441,Sydney Secondary College Blackwattle Bay Campus,GLEBE,TAYLOR ST,2037,NSW,G,Secondary," U, 11-12",640,634,255,385,SG,http://www.sscbwattle-h.schools.nsw.edu.au,-33.8753380773,151.187288233,-33.8753380773,151.187288233,"TAYLOR ST, GLEBE, NSW 2037",GLEBE,4,Sensis,
2013,40443,Launceston College,LAUNCESTON,107-119 PATERSON STREET,7250,TAS,G,Secondary, 11-12,1403,1347.4,708,695,G,http://www.launc.tased.edu.au/,-41.439886,147.132922,-41.439332,147.132621,"107-119 PATERSON ST, LAUNCESTON, TAS 7250",LAUNCESTON,2,Sensis,
2013,40444,Elizabeth College,HOBART,256 ELIZABETH STREET,7000,TAS,G,Secondary, 11-12,948,863.2,513,435,G,http://education.tas.edu.au/academy/elizabeth/Pages/Home.aspx,-42.87779,147.317119,-42.877065,147.318794,"256 ELIZABETH ST, NORTH HOBART, TAS 7000",NORTH HOBART,2,Sensis,
2013,40445,Rosny College,ROSNY PARK,BASTICK STREET,7018,TAS,G,Secondary, 11-12,1250,1123.8,639,611,G,http://www.rosny.tased.edu.au/,-42.869838,147.364994,-42.869838,147.364994,"Rosny College, 20 Bastick Street, Rosny TAS 7018, Australia",ROSNY,3,Google,
2013,40446,Sevenoaks Senior College,CANNINGTON,SEVENOAKS STREET,6107,WA,G,Secondary, 11-12,469,469,214,255,G,http://www.det.wa.edu.au/schoolsonline/main_page.do?displayURL=overview.do&schoolID=4165,-32.0119842,115.9427894,-32.0119842,115.9427894,"Sevenoaks Senior College, 275 Sevenoaks Street, Cannington WA 6107, Australia",CANNINGTON,3,Google,
2013,40447,North Lake Senior Campus,KARDINYA,WINTERFOLD ROAD,6163,WA,G,Secondary, 10-12,339,326,162,177,G,http://www.det.wa.edu.au/schoolsonline/main_page.do?displayURL=overview.do&schoolID=4059,-32.0738095,115.8134962,-32.0738095,115.8134962,"North Lake Senior Campus, 188 Winterfold Road, Kardinya WA 6163, Australia",KARDINYA,3,Google,
2013,40448,Cyril Jackson Senior Campus,BASSENDEAN,REID STREET,6054,WA,G,Secondary, 11-12,559,485.6,246,313,G,http://www.det.wa.edu.au/schoolsonline/main_page.do?displayURL=overview.do&schoolID=4015,-31.9132644,115.9423513,-31.9132644,115.9423513,"Cyril Jackson Senior Campus, 53 Reid Street, Bassendean WA 6054, Australia",BASSENDEAN,3,Google,
2013,40616,Eynesbury Senior College Inc,ADELAIDE,15-19 FRANKLIN STREET,5000,SA,I,Secondary," U, 10-12",166,164,103,63,G,http://www.esc.sa.edu.au,-34.927563,138.598388,-34.927235,138.598374,"15-19 FRANKLIN ST, ADELAIDE, SA 5000",ADELAIDE,2,Sensis,
2013,40449,Tuart College,TUART HILL,BANKSIA STREET,6060,WA,G,Secondary," U, 11-12",1251,474.4,769,482,G,http://www.det.wa.edu.au/schoolsonline/main_page.do?displayURL=overview.do&schoolID=4505,-31.904627,115.839237,-31.904627,115.839237,"Tuart College, 105 Banksia Street, Tuart Hill WA 6060, Australia",TUART HILL,3,Google,
2013,40450,Canning College,BENTLEY,MARQUIS STREET,6102,WA,G,Secondary," U, 11-12",1086,894.3,469,617,G,http://www.det.wa.edu.au/schoolsonline/main_page.do?displayURL=overview.do&schoolID=4500,-32.00955,115.897,-32.00955,115.897,"Canning College, Marquis Street, Bentley WA 6102, Australia",BENTLEY,3,Google,
2013,40451,All Saints Catholic Senior College,CASULA,LEACOCKS LANE,2170,NSW,C,Secondary," U, 11-12",550,549.6,263,287,G,http://allsaintscasula.catholic.edu.au,-33.956257,150.906121,-33.956257,150.906121,"All Saints Catholic Senior College, Casula NSW 2170, Australia",CASULA,3,Google,
2013,40452,Tallowood Steiner School,BOWRAVILLE,220 BELLINGEN ROAD,2449,NSW,I,Primary," U, K-6",35,35,21,14,G,http://www.tallowood.nsw.edu.au/,-30.623225,152.849749,-30.623225,152.849749,"220 BELLINGEN RD, BOWRAVILLE, NSW 2449",BOWRAVILLE,2,Sensis,
2013,40457,Pennington Junior Primary School,PENNINGTON,HARRISON ROAD,5013,SA,G,Primary," U, R-2",159,159,62,97,G,http://www.penningtonjp.sa.edu.au,-34.8617103,138.5317031,-34.8617103,138.5317031,"Pennington Junior Primary School, Harrison Road, Pennington SA 5103, Australia",PENNINGTON,3,Google,
2013,40487,Port Lincoln Junior Primary School,PORT LINCOLN,ADELAIDE PLACE,5606,SA,G,Primary," U, R-2",329,329,167,162,G,http://www.lincolnjp.sa.edu.au,-34.7219347,135.8572551,-34.7219347,135.8572551,"Port Lincoln Junior Primary School, Adelaide Place, Lincoln SA 5606, Australia",LINCOLN,3,Google,
2013,40492,Australia Street Infants School,NEWTOWN,AUSTRALIA ST,2042,NSW,G,Primary, P-2,112,112,57,55,G,http://www.australist-p.schools.nsw.edu.au,-33.895615,151.177677,-33.895615,151.177677,"Australia Street Infants School, 229 Australia Street, Newtown NSW 2042, Australia",NEWTOWN,3,Google,
2013,40493,Russell Lea Infants School,FIVE DOCK,LITHGOW ST,2046,NSW,G,Primary, K-2,169,169,84,85,G,http://www.russelllea-p.schools.nsw.edu.au,-33.8614854,151.1423223,-33.8614854,151.1423223,"Russell Lea Infants' School, Lithgow Street, Russell Lea NSW 2046, Australia",RUSSELL LEA,3,Google,
2013,40494,Taverners Hill Infants School,PETERSHAM,ELSWICK ST,2049,NSW,G,Primary, K-2,82,82,35,47,G,http://www.tavernersh-p.schools.nsw.edu.au,-33.8892095526,151.157624803,-33.8892095526,151.157624803,"ELSWICK ST, PETERSHAM, NSW 2049",PETERSHAM,4,Sensis,
2013,40496,Northern Beaches Secondary College Freshwater Senior Campus,HARBORD,HARBORD RD,2096,NSW,G,Secondary," U, 11-12",624,622.2,353,271,H,http://www.freshwatersenior.nsw.edu.au,-33.7682601,151.2797699,-33.7682601,151.2797699,"Freshwater Senior Campus, 153 Harbord Road, Freshwater NSW 2096, Australia",FRESHWATER,3,Google,
2013,40499,Yeo Park Infants School,ASHFIELD,VICTORIA ST,2131,NSW,G,Primary, K-2,96,96,54,42,G,http://www.yeoparkinf-p.schools.nsw.edu.au,-33.90217,151.1297269,-33.90217,151.1297269,"Yeo Park Infants' School, Victoria Street, Ashfield NSW 2131, Australia",ASHFIELD,3,Google,
2013,40500,Casuarina Senior College,MOIL,61 PARER DR,0810,NT,G,Secondary, 10-12,942,932.7,440,502,G,http://www.casuarinaseniorcollege.com.au,-12.383646,130.878881,-12.382246,130.880303,"61 PARER DR, MOIL, NT 0810",MOIL,2,Sensis,
2013,40512,Fowler Road School,MERRYLANDS,CNR FOWLER ROAD & MATTHEW STREET,2160,NSW,G,Combined, U,43,43,5,38,G,http://www.fowlerroad-s.schools.nsw.edu.au,-33.8411338,150.9751315,-33.8411338,150.9751315,"Fowler Road & Matthew Street, Merrylands West NSW 2160, Australia",Merrylands West,7,Google,
2013,40513,Sefton Infants School,SEFTON,RODD ST,2162,NSW,G,Primary, P-2,80,80,36,44,G,http://www.seftoninf-p.schools.nsw.edu.au,-33.8895076,151.0095441,-33.8895076,151.0095441,"Sefton Infants School, Sefton NSW 2162, Australia",SEFTON,3,Google,
2013,40519,Blackburn English Language School,BURWOOD EAST,120 ELEY ROAD,3151,VIC,G,Combined, Prep-12,414,414,180,234,H,http://www.blackburnels.vic.edu.au/,-37.848145,145.147393,-37.847453,145.147498,"110-132 ELEY RD, BURWOOD EAST, VIC 3151",BURWOOD EAST,2,Sensis,
2013,40522,Mount Lewis Infants School,GREENACRE,NOBLE AVE,2190,NSW,G,Primary, K-2,182,182,91,91,G,http://www.mtlewisinfants.nsw.edu.au,-33.916185,151.050124,-33.916185,151.050124,"Mount Lewis Infants School, 28 Noble Avenue, Mount Lewis NSW 2190, Australia",MOUNT LEWIS,3,Google,
2013,40523,Bankstown South Infants School,BANKSTOWN,STACEY ST,2200,NSW,G,Primary, P-2,86,86,36,50,G,http://www.bankstowsi-p.schools.nsw.edu.au,-33.9312722,151.0386658,-33.9312722,151.0386658,"Bankstown South Infants' School, Stacey Street, Bankstown NSW 2200, Australia",BANKSTOWN,3,Google,
2013,40524,Arncliffe West Infants School,ARNCLIFFE,LOFTUS ST,2205,NSW,G,Primary, P-2,70,70,27,43,G,http://www.arncliffew-p.schools.nsw.edu.au,-33.931233,151.14476,-33.931233,151.14476,"Arncliffe West Infants School, 7 Loftus Street, Ancliffe NSW 2205, Australia",ANCLIFFE,3,Google,
2013,40525,Bardwell Park Infants School,BARDWELL PARK,CREWE LANE,2207,NSW,G,Primary, K-2,62,62,31,31,G,http://www.bardwelpki-p.schools.nsw.edu.au,-33.933076,151.125114,-33.933076,151.125114,"Bardwell Park Infants School, 4 Crewe Street, Bardwell Park NSW 2207, Australia",BARDWELL PARK,3,Google,
2013,40526,Hurstville Grove Infants School,PENSHURST,LANDSDOWNE ST,2222,NSW,G,Primary, K-2,58,58,25,33,G,http://www.hurstvilgr-p.schools.nsw.edu.au,-33.9732724,151.0909643,-33.9732724,151.0909643,"Hurstville Grove Infants School, 81 Lansdowne Street, Penshurst NSW 2222, Australia",PENSHURST,3,Google,
2013,40528,Kotara School,KOTARA,SEAVIEW & PARK AVES,2289,NSW,G,Combined, U,24,24,2,22,G,http://www.kotara-s.schools.nsw.edu.au,-32.9467385,151.6946617,-32.9467385,151.6946617,"Kotara South Public School, 150 Rae Crescent, Kotara NSW 2289, Australia",KOTARA,3,Google,
2013,40530,Callaghan College Jesmond Campus,JESMOND,JANET ST,2299,NSW,G,Secondary," U, 11-12",678,664.6,349,329,H,http://www.jesmondcc-h.schools.nsw.edu.au,-32.8927277,151.6677113,-32.8927277,151.6677113,"Callaghan College Wallsend Campus, 80/82 Macquarie Street, Wallsend NSW 2287, Australia",WALLSEND,3,Google,
2013,40532,New Lambton Heights Infants School,NEW LAMBTON HEIGHTS,LOOKOUT RD,2305,NSW,G,Primary, K-2,78,78,32,46,G,http://www.newlambhti-p.schools.nsw.edu.au/,-32.934693,151.6889296,-32.934693,151.6889296,"New Lambton Heights Infants School, 176 Lookout Rd, New Lambton Heights NSW 2305, Australia",NEW LAMBTON HEIGHTS,3,Google,
2013,40533,Nillo Infants School,LORN,BELMORE RD,2320,NSW,G,Primary, K-2,53,53,27,26,G,http://www.nilloinf-p.schools.nsw.edu.au,-32.7296968,151.5527395,-32.7296968,151.5527395,"nillo infant schools, Belmore Road, Maitland NSW 2320, Australia",MAITLAND,3,Google,
2013,40543,Stanford Merthyr Infants School,STANFORD MERTHYR,MAITLAND ST,2327,NSW,G,Primary, K-2,55,55,28,27,G,http://www.stanmerthi-p.schools.nsw.edu.au,-32.8237304,151.4957879,-32.8237304,151.4957879,"Stanford Merthyr Infants School, Maitland Street, Stanford Merthyr NSW 2327, Australia",STANFORD MERTHYR,3,Google,
2013,40545,Glen Innes West Infants School,GLEN INNES,CORONATION AVE,2370,NSW,G,Primary, K-2,37,37,19,18,G,http://www.gleninnesw-p.schools.nsw.edu.au,-29.7387471,151.7237971,-29.7387471,151.7237971,"Glen Innes West Infants School, Coronation Avenue, Glen Innes NSW 2370, Australia",GLEN INNES,3,Google,
2013,40551,Murwillumbah South Infants School,SOUTH MURWILLUMBAH,RIVER ST,2484,NSW,G,Primary, K-2,23,23,10,13,G,http://www.murwillums-p.schools.nsw.edu.au,-28.3344879,153.3991858,-28.3344879,153.3991858,"Murwillumbah South Infants School, River Street, South Murwillumbah NSW 2484, Australia",SOUTH MURWILLUMBAH,3,Google,
2013,40552,Penshurst Primary School,PENSHURST,87 RITCHIE STREET,3289,VIC,G,Primary, Prep-5,10,10,4,6,G,http://www.pens.vic.edu.au,-37.878985,142.290774,-37.878985,142.290774,"87 RITCHIE ST, PENSHURST, VIC 3289",PENSHURST,2,Sensis,
2013,40555,Rugby Public School,RUGBY,BOOROWA-CROOKWELL RD,2583,NSW,G,Primary, K-6,6,6,2,4,G,http://www.rugby-p.schools.nsw.edu.au/,-34.3903643,148.9918321,-34.3903643,148.9918321,"Rugby Public School, Rugby NSW 2583, Australia",RUGBY,3,Google,
2013,40556,Cabramurra Public School,CABRAMURRA,MOOLANDA PLACE,2630,NSW,G,Primary, K-6,9,9,4,5,G,http://www.cabramurra-p.schools.nsw.edu.au,-35.9333017,148.380374,-35.9333017,148.380374,"Cabramurra Public School, Kosciuszko National Park, Moolanda Place, Cabramurra NSW 2629, Australia",CABRAMURRA,3,Google,
2013,40559,Narrandera East Infants School,NARRANDERA,ELIZABETH ST,2700,NSW,G,Primary, K-2,59,59,33,26,G,http://www.narrandere-p.schools.nsw.edu.au/,-34.7486927,146.5643229,-34.7486927,146.5643229,"Narrandera East Infants School, Elizabeth Street, Narrandera NSW 2700, Australia",NARRANDERA,3,Google,
2013,40560,Jugiong Public School,JUGIONG,FLYDE ST,2727,NSW,G,Primary, K-6,24,24,12,12,G,http://www.jugiong-p.schools.nsw.edu.au,-34.8187939,148.3335159,-34.8187939,148.3335159,"Jugiong Public School, Flyde Street, Jugiong NSW 2726, Australia",JUGIONG,3,Google,
2013,40562,Mildura Senior College,MILDURA,307-339 DEAKIN AVENUE,3500,VIC,G,Secondary, 11-12,890,862.8,443,447,G,http://www.milsen.vic.edu.au,-34.197833,142.144408,-34.199101,142.145454,"307-339 DEAKIN AV, MILDURA, VIC 3500",MILDURA,2,Sensis,
2013,40569,Sofala Public School,SOFALA,TURON TERRACE,2795,NSW,G,Primary, K-6,12,12,5,7,G,http://www.sofala-p.schools.nsw.edu.au,-33.081905,149.695318,-33.081905,149.695318,"Sofala Public School, Turon Terrace, Sofala NSW 2795, Australia",SOFALA,3,Google,
2013,40572,Bylong Upper Public School,BYLONG,UPPER BYLONG RD,2849,NSW,G,Primary, K-6,5,5,2,3,G,http://www.bylonguppr-p.schools.nsw.edu.au,-32.418363,150.1236812,-32.418363,150.1236812,"Bylong Upper Public School, Upper Bylong Road, Bylong NSW 2849, Australia",BYLONG,3,Google,
2013,40573,Goolma Public School,GOOLMA,GOLLAN RD,2852,NSW,G,Primary, K-6,5,5,3,2,G,http://www.goolma-p.schools.nsw.edu.au,-32.3306938,149.2444088,-32.3306938,149.2444088,"Goolma Public School, Gollan Road, Goolma NSW 2852, Australia",GOOLMA,3,Google,
2013,40576,Bendigo Senior Secondary College,BENDIGO,40 GAOL ROAD,3550,VIC,G,Secondary, 11-12,1648,1644.5,890,758,G,http://www.bssc.edu.au,-36.755383,144.279497,-36.754626,144.278966,"40 GAOL RD, BENDIGO, VIC 3550",BENDIGO,2,Sensis,
2013,40584,Myrtleford P-12 College,MYRTLEFORD,PRINCE STREET,3737,VIC,G,Combined, Prep-12,223,222,100,123,G,http://www.myrtlefordp12.vic.edu.au/,-36.5553836,146.722584,-36.5553836,146.722584,"Myrtleford Secondary College, Prince Street, Myrtleford VIC 3737, Australia",MYRTLEFORD,3,Google,
2013,40586,Athlone Primary School,ATHLONE,930 DROUIN-KORUMBURRA ROAD,3818,VIC,G,Primary," Prep, 2, 4, 6",4,0.8,2,2,G,http://www.athloneps.vic.edu.au/,-38.241008,145.777744,-38.241008,145.777744,"930 DROUIN-KORUMBURRA RD, ATHLONE, VIC 3818",ATHLONE,2,Sensis,
2013,40588,Traralgon College,TRARALGON,154-184 GREY STREET,3844,VIC,G,Secondary, 7-12,1034,1031.2,494,540,H,http://www.traralsc.vic.edu.au,-38.190538,146.520315,-38.191362,146.520234,"154-184 GREY ST, TRARALGON, VIC 3844",TRARALGON,2,Sensis,
2013,40589,Lundavra State School,GOONDIWINDI,LIENASSIE ROAD,4390,QLD,G,Primary, Prep-7,16,16,8,8,G,http://www.lundavrass.eq.edu.au,-28.5472061,150.3074519,-28.5472061,150.3074519,"Lundavra State School, Goondiwindi QLD 4390, Australia",GOONDIWINDI,3,Google,
2013,40592,Perseverance Primary School,FRENCH ISLAND,CENTREWAY,3921,VIC,G,Primary, Prep-5,15,15,11,4,G,http://www.perseveranceps.vic.edu.au,-38.3409962,145.3400658,-38.3409962,145.3400658,"French Island VIC 3921, Australia",FRENCH ISLAND,4,Google,
2013,40596,Kioma State School,KIOMA,KIOMA ROAD,4498,QLD,G,Primary, Prep-7,14,14,10,4,G,,-28.2115833923,149.79519326,-28.2115833923,149.79519326,"KIOMA RD, KIOMA, QLD 4498",KIOMA,4,Sensis,
2013,40597,Wonthaggi Secondary College,WONTHAGGI,75 MCBRIDE AVENUE,3995,VIC,G,Secondary, 7-12,1164,1163.3,555,609,H,http://www.wonthaggisc.vic.edu.au,-38.60775,145.592521,-38.607834,145.591739,"75 MCBRIDE AV, WONTHAGGI, VIC 3995",WONTHAGGI,2,Sensis,
2013,40599,Western Australian College Of Agriculture - Narrogin,NARROGIN,COORAMINNING ROAD,6312,WA,G,Secondary, 10-12,115,115,35,80,G,http://www.det.wa.edu.au/schoolsonline/main_page.do?displayURL=overview.do&schoolID=4200,-32.9346717,117.1798612,-32.9346717,117.1798612,"Narrogin, Narrogin WA 6312, Australia",NARROGIN,3,Google,
2013,40600,Western Australian College Of Agriculture - Denmark,DENMARK,SOUTH COAST HIGHWAY,6333,WA,G,Secondary, 10-12,99,99,33,66,G,http://www.det.wa.edu.au/schoolsonline/main_page.do?displayURL=overview.do&schoolID=4202,-34.9611981,117.3527072,-34.9611981,117.3527072,"SOUTH COAST HWY, DENMARK, WA 6333",DENMARK,4,Sensis,
2013,40601,Western Australian College Of Agriculture - Cunderdin,CUNDERDIN,CUNDERDIN-WYALKATCHEM ROAD,6407,WA,G,Secondary, 11-12,118,118,28,90,G,http://www.det.wa.edu.au/schoolsonline/main_page.do?displayURL=overview.do&schoolID=4201,-31.646397,117.2434608,-31.646397,117.2434608,"Cunderdin, Cunderdin WA 6407, Australia",CUNDERDIN,3,Google,
2013,40604,St Lawrence State School,ST LAWRENCE,MACARTNEY STREET,4707,QLD,G,Primary, Prep-7,10,10,2,8,G,http://www.stlawrenss.eq.edu.au,-22.344073,149.528521,-22.344073,149.528521,"St Lawrence State School, Saint Lawrence QLD 4707, Australia",SAINT LAWRENCE,3,Google,
2013,40611,St Paul's International College,MOSS VALE,463 ARGYLE STREET,2577,NSW,I,Secondary," U, 7-12",138,138,55,83,G,http://www.spic.nsw.edu.au/,-34.549151,150.368219,-34.551111,150.368566,"463 ARGYLE ST, MOSS VALE, NSW 2577",MOSS VALE,2,Sensis,
2013,40613,Wongutha Christian Aboriginal Parent-Directed School,GIBSON,GIBSON EAST ROAD,6448,WA,I,Secondary," U, 11-12",72,72,36,36,G,http://wonguthacaps.wa.edu.au/,-33.6506426,121.8127168,-33.6506426,121.8127168,"Gibson WA 6448, Australia",GIBSON,4,Google,
2013,40615,St Monica's College,EPPING,16 DAVISSON ST,3076,VIC,C,Secondary," U, 7-12",1842,1842,940,902,H,http://www.stmonicas-epping.com,-37.650782,145.030435,-37.650657,145.029709,"16 DAVISSON ST, EPPING, VIC 3076",EPPING,2,Sensis,
